     3.03           OBSERVATION DATA    M: Mixed            RINEX VERSION / TYPE
rinex ON            NSL                 20210412 133452 UTC PGM / RUN BY / DATE
                                                            MARKER NAME
                                                            MARKER TYPE
rinex ON User                                               OBSERVER / AGENCY
 -2853635.8493  4666498.2509  3269415.9061                  APPROX POSITION XYZ
XXXXXXXX            HUAWEI              ELE-AL00            REC # / TYPE / VERS
XXXXXXXX            ELE-AL00                                ANT # / TYPE
        0.0000        0.0000        0.0000                  APPROX POSITION XYZ
        0.0000        0.0000        0.0000                  ANTENNA: DELTA H/E/N
G    8 C1C L1C D1C S1C C5X L5X D5X S5X                      SYS / # / OBS TYPES
R    4 C1C L1C D1C S1C                                      SYS / # / OBS TYPES
E    8 C1C L1C D1C S1C C5X L5X D5X S5X                      SYS / # / OBS TYPES
C    4 C2I L2I D2I S2I                                      SYS / # / OBS TYPES
J    8 C1C L1C D1C S1C C5X L5X D5X S5X                      SYS / # / OBS TYPES
  2021    04    12    05    35   30.0000010     GPS         TIME OF FIRST OBS
                                                            END OF HEADER
> 2021 04 12 05 35 30.0000010  0  7
G22  24540028.192      -10870.105        2717.821          28.000                                                            
G09  25176897.097   -28276822.561       -2222.204          20.000    25176908.789           0.000       -1657.112          23.000
G01  20799317.732      -11309.327        2819.600          14.000                                                            
G16  24493754.926   -28276715.609       -2249.055          13.000                                                            
C08  38205076.876       -7168.543        1795.945          15.000                                                            
J01  38032134.401        -636.111         164.237          15.000                                                            
E24  28339072.568  -150851211.982       -1486.920          18.000                                                            
> 2021 04 12 05 35 31.0000010  0  7
G22  24539511.350      -13586.171        2713.972          28.000                                                            
G09  25177318.905   -35346028.816       -2223.908          20.000    25177332.395           0.040       -1660.572          19.000
G01  20798782.902      -14129.441        2823.031          14.000                                                            
G16  24494184.229   -35345893.966       -2253.635          12.000                                                            
C08  38204736.311       -8964.972        1797.078          15.000                                                            
J01  38032107.120        -799.758         161.909          15.000    38032111.617           0.000         125.758          21.000
E24  28339450.007  -188564014.294       -1487.645          18.000                                                            
> 2021 04 12 05 35 32.0000010  0  7
G22  24538995.107      -16300.017        2714.127          27.000                                                            
G09  25177741.312   -42415234.954       -2222.496          21.000    25177754.503   -37712629.696       -1659.083          20.000
G01  20798249.272      -16954.038        2826.532          13.000                                                            
G16  24494613.232   -42415071.741       -2249.440          11.000                                                            
C08  38204392.150      -10766.728        1802.326          14.000                                                            
J01  38032079.839        -960.226         161.121          14.000    38032069.646           0.375         118.373          17.000
E24  28339828.345  -226276816.086       -1487.673          18.000                                                            
> 2021 04 12 05 35 33.0000010  0  7
G22  24538478.265      -19014.762        2714.821          28.000                                                            
G09  25178167.018   -49484442.262       -2221.997          24.000    25178176.311   -75425260.807       -1658.359          21.000
G01  20797712.643      -19782.890        2831.310          12.000                                                            
G16  24495042.235   -49484251.457       -2249.694          11.000                                                            
C08  38204047.089      -12569.676        1799.022          12.000                                                            
J01  38032053.157       -1123.956         164.217          13.000    38032040.866        -118.116         118.418          19.000
E24  28340206.983  -263989617.466       -1488.289          18.000                                                            
> 2021 04 12 05 35 34.0000010  0  7
G22  24537961.123      -21728.858        2714.024          27.000                                                            
G09  25178592.723   -56553648.785       -2223.488          24.000    25178598.419  -113137891.877       -1659.055          19.000
G01  20797176.614      -22618.409        2838.524          12.000                                                            
G16  24495474.836   -56553427.270       -2254.901          11.000                                                            
C08  38203703.227      -14368.775        1798.281          12.000                                                            
J01  38032024.377       -1287.130         162.155          11.000    38032011.786        -236.151         117.611          18.000
E24  28340585.921  -301702419.266       -1487.180          18.000                                                            
> 2021 04 12 05 35 35.0000010  0  7
G22  24537445.180      -24442.523        2713.310          28.000                                                            
G09  25179014.531   -63622856.436       -2220.404          22.000    25179020.227  -150850522.366       -1659.192          20.000
G01  20796640.885      -25455.526        2835.749          12.000                                                            
G16  24495909.834   -63622599.204       -2259.344           9.000                                                            
C08  38203359.065      -16166.187        1795.170           9.000                                                            
J01  38031995.597       -1449.987         161.500          12.000    38031982.706        -353.603         117.417          19.000
E24  28340964.858  -339415221.340       -1487.641          18.000                                                            
> 2021 04 12 05 35 36.0000010  0  7
G22  24536929.537      -27157.347        2715.485          27.000                                                            
G09  25179437.838   -70692064.789       -2219.827          23.000    25179442.635  -188563153.742       -1657.607          20.000
G01  20796103.957      -28294.536        2841.886          11.000                                                            
G16  24496344.534   -70691766.147       -2263.525           9.000                                                            
C08  38203015.203      -17962.577        1795.872          10.000                                                            
J01  38031962.920       -1612.039         162.549          11.000    38031953.027        -471.015         118.237          19.000
E24  28341344.695  -377128022.949       -1487.680          17.000                                                            
> 2021 04 12 05 35 37.0000010  0  7
G22  24536412.995      -29873.882        2716.569          26.000                                                            
G09  25179861.744   -77761274.732       -2218.359          23.000    25179864.443  -226275785.798       -1657.618          20.000
G01  20795563.731      -31139.078        2845.450          12.000                                                            
G16  24496775.635   -77760932.632       -2262.062          10.000                                                            
C08  38202672.240      -19758.214        1793.154          11.000                                                            
J01  38031932.341       -1775.581         161.819          10.000    38031922.748        -589.499         118.865          19.000
E24  28341723.633  -414840824.594       -1488.419          17.000                                                            
> 2021 04 12 05 35 38.0000010  0  7
G22  24535897.352      -32590.517        2716.406          28.000                                                            
G09  25180282.953   -84830484.981       -2218.596          23.000    25180286.550  -263988417.216       -1658.540          20.000
G01  20795019.008      -33987.544        2850.946          12.000                                                            
G16  24497208.236   -84830098.158       -2265.143           9.000                                                            
C08  38202328.678      -21550.690        1794.318          12.000                                                            
J01  38031904.161       -1937.989         161.531          12.000    38031893.668        -707.945         117.778          19.000
E24  28342102.870  -452553625.493       -1489.205          17.000                                                            
> 2021 04 12 05 35 39.0000010  0  7
G22  24535379.910      -35306.028        2714.643          27.000                                                            
G09  25180706.560   -91899695.093       -2219.793          21.000    25180708.958  -301701048.090       -1659.034          20.000
G01  20794476.983      -36839.167        2852.553          11.000                                                            
G16  24497640.237   -91899262.727       -2264.617          10.000                                                            
C08  38201986.915      -23342.078        1786.941          12.000                                                            
J01  38031874.181       -2099.223         160.590          13.000    38031863.689        -825.918         118.244          20.000
E24  28342483.307  -490266426.180       -1488.705          17.000                                                            
> 2021 04 12 05 35 40.0000010  0  7
G22  24534862.168      -38020.162        2713.825          28.000                                                            
G09  25181130.466   -98968902.312       -2222.354          22.000    25181133.164  -339413675.002       -1663.823          20.000
G01  20793935.258      -39695.872        2860.188          10.000                                                            
G16  24498076.135   -98968424.551       -2268.653          11.000                                                            
C08  38201646.051      -25126.767        1783.243          13.000                                                            
J01  38031845.401       -2257.611         155.327          12.000    38031834.009        -944.185         118.354          20.000
E24  28342840.660           0.000       -1994.186          18.000    28342862.844  -527979226.704       -1490.013          17.000
> 2021 04 12 05 35 41.0000010  0  7
G22  24534346.226      -40734.108        2713.638          27.000                                                            
G09  25181551.974  -106038109.821       -2221.843          23.000    25181556.171  -377126301.990       -1661.681          19.000
G01  20793387.837      -42560.765        2868.405           9.000                                                            
G16  24498513.832  -106037587.278       -2266.677          10.000                                                            
C08  38201305.487      -26909.134        1782.735          13.000                                                            
J01  38031820.519       -2412.876         154.812          13.000    38031803.730       -1062.705         118.211          21.000
E24  28343224.694           0.514       -1993.742          16.000    28343243.581  -565692025.846       -1490.874          18.000
> 2021 04 12 05 35 42.0000010  0  7
G22  24533828.184      -43446.444        2710.608          26.000                                                            
G09  25181974.981  -113107315.376       -2224.544          22.000    25181979.179  -414838932.948       -1656.573          19.000
G01  20792839.817      -45431.542        2872.681           9.000                                                            
G16  24498944.034  -113106754.549       -2260.884           9.000                                                            
C08  38200967.021      -28690.379        1778.587          13.000                                                            
J01  38031790.239       -2568.356         155.442          13.000    38031774.051       -1180.187         117.181          20.000
E24  28343621.019    -7069437.123       -1992.208          16.000    28343624.617  -603404823.846       -1492.225          19.000
> 2021 04 12 05 35 43.0000010  0  7
G22  24533311.942      -46156.997        2710.354          27.000                                                            
G09  25182397.389  -120176518.392       -2226.805          22.000    25182402.486  -452551565.682       -1658.738          18.000
G01  20792295.993      -48303.802        2874.187           9.000                                                            
G16  24499375.136  -120175927.081       -2255.212           9.000                                                            
C08  38200625.857      -30471.434        1783.965          13.000                                                            
J01  38031761.160       -2721.151         150.711          13.000    38031744.971       -1297.087         116.960          20.000
E24  28343991.563   -14138879.185       -1984.047          15.000    28344005.653  -641117620.973       -1492.820          20.000
> 2021 04 12 05 35 44.0000010  0  6
G22  24532797.198      -48867.277        2709.764          26.000                                                            
G09  25182818.597  -127245722.703       -2223.746          21.000    25182825.493  -490264195.006       -1662.384          18.000
G16  24499806.837  -127245101.359       -2253.369           9.000                                                            
C08  38200283.494      -32255.700        1785.244          14.000                                                            
J01  38031730.881       -2870.718         149.279          13.000    38031715.891       -1413.711         116.282          20.000
E24  28344369.901   -21208321.719       -1989.992          12.000    28344386.390  -678830417.841       -1492.786          20.000
> 2021 04 12 05 35 45.0000010  0  5
G22  24532280.356      -51577.375        2710.805          26.000                                                            
G09  25183239.206  -134314927.401       -2225.357          21.000    25183250.598  -527976821.537       -1663.392          18.000
C08  38199940.531      -34040.090        1783.638          14.000                                                            
J01  38031698.203       -3019.604         149.068          13.000    38031687.111       -1529.318         115.613          19.000
E24  28344750.038   -28277759.459       -1990.350          12.000    28344767.126  -716543214.244       -1493.360          20.000
> 2021 04 12 05 35 46.0000010  0  5
G22  24531764.413      -54289.095        2712.658          27.000                                                            
G09  25183661.314  -141384131.801       -2223.822          21.000    25183673.006  -565689449.262       -1657.740          19.000
C08  38199597.569      -35824.432        1784.363          14.000                                                            
J01  38031667.025       -3169.593         151.170          13.000    38031658.031       -1645.813         117.684          18.000
E24  28345128.376   -35347198.331       -1993.811          12.000    28345147.862  -754256010.717       -1492.114          20.000
> 2021 04 12 05 35 47.0000010  0  5
G22  24531248.170      -57003.465        2714.543          26.000                                                            
G09  25184083.422  -148453338.801       -2221.486          24.000    25184094.814  -603402082.418       -1656.175          19.000
C08  38199255.206      -37612.166        1789.526          15.000                                                            
J01  38031637.046       -3322.494         154.188          11.000    38031628.052       -1764.037         118.588          19.000
E24  28345505.815   -42416633.143       -1994.795           9.000    28345528.599  -791968808.975       -1490.937          20.000
> 2021 04 12 05 35 48.0000010  0  5
G22  24530731.328      -59718.558        2714.943          27.000                                                            
G09  25184504.930  -155522547.260       -2220.121          24.000    25184517.222  -641114718.003       -1654.576          19.000
C08  38198911.944      -39399.270        1784.860          15.000                                                            
J01  38031609.165       -3476.507         155.056          11.000    38031597.473       -1882.470         118.162          19.000
E24  28345885.652   -49486068.159       -1993.808           9.000    28345908.736  -829681607.895       -1490.617          20.000
> 2021 04 12 05 35 49.0000010  0  5
G22  24530213.886      -62434.025        2715.399          27.000                                                            
G09  25184929.136  -162591756.484       -2219.559          25.000    25184939.030  -678827352.298       -1657.849          19.000
C08  38198568.082      -41187.174        1789.558          15.000                                                            
J01  38031579.485       -3633.274         157.764          11.000    38031567.494       -2000.696         118.075          19.000
E24  28346265.789   -56555502.544       -1997.369          12.000    28346288.873  -867394406.636       -1491.387          20.000
> 2021 04 12 05 35 50.0000010  0  6
G22  24529698.843      -65149.451        2714.608          27.000                                                            
G09  25185351.544  -169660965.266       -2222.354          24.000    25185364.135  -716539983.648       -1657.856          19.000
G01  20788574.369           0.000        2829.496          21.000                                                            
C08  38198224.220      -42977.829        1791.079          15.000                                                            
J01  38031548.907       -3792.425         159.883          12.000    38031536.915       -2118.399         117.686          19.000
E24  28346646.525   -63624933.870       -1998.199          12.000    28346668.110  -905107203.821       -1491.860          20.000
> 2021 04 12 05 35 51.0000010  0  6
G22  24529183.200      -67863.968        2713.434          27.000                                                            
G09  25185773.952  -176730172.004       -2222.760          24.000    25185787.142  -754252617.507       -1653.378          19.000
G01  20788138.171          -0.421        2829.724          11.000                                                            
C08  38197877.959      -44771.574        1794.148          15.000                                                            
J01  38031514.131       -3953.052         160.948          13.000    38031506.636       -2235.701         117.563          19.000
E24  28347028.161   -70694363.928       -1999.604          13.000    28347048.247  -942820001.836       -1492.926          20.000
> 2021 04 12 05 35 52.0000010  0  6
G22  24528667.857      -70577.555        2713.275          27.000                                                            
G09  25186199.357  -183799378.036       -2223.617          24.000    25186208.651  -791965252.603       -1657.977          19.000
G01  20787595.247       -2832.037        2832.168          12.000                                                            
C08  38197533.498      -46562.985        1789.417          15.000                                                            
J01  38031480.254       -4115.855         161.947          14.000    38031476.657       -2353.294         117.729          18.000
E24  28347407.998   -77763795.359       -1997.288          14.000    28347427.784  -980532799.907       -1492.858          20.000
> 2021 04 12 05 35 53.0000010  0  6
G22  24528152.513      -73289.987        2712.101          28.000                                                            
G09  25186624.163  -190868582.357       -2224.707          24.000    25186631.958  -829677883.236       -1660.485          19.000
G01  20787058.619       -5666.316        2839.323           9.000                                                            
C08  38197190.835      -48350.288        1787.098          15.000                                                            
J01  38031447.277       -4275.438         159.169          14.000    38031446.677       -2470.551         116.746          19.000
E24  28347790.833   -84833226.188       -1999.458          14.000    28347810.619 -1018245597.030       -1492.074          20.000
> 2021 04 12 05 35 54.0000010  0  7
G22  24527634.172      -76001.018        2711.322          28.000                                                            
G09  25187044.472  -197937788.230       -2222.069          21.000    25187055.264  -867390512.921       -1659.132          19.000
G01  20786520.192       -8505.777        2836.220          10.000                                                            
G21  20411350.316           0.000         283.476          17.000                                                            
C08  38196847.872      -50136.972        1787.236          15.000                                                            
J01  38031414.000       -4434.986         160.746          14.000    38031416.698       -2587.017         116.341          18.000
E24  28348173.068   -91902655.349       -2000.590          14.000    28348191.056 -1055958394.001       -1494.300          20.000
> 2021 04 12 05 35 55.0000010  0  7
G22  24527118.229      -78711.179        2710.676          24.000                                                            
G09  25187465.980  -205006995.611       -2221.951          19.000    25187479.471  -905103143.285       -1658.626          19.000
G01  20785985.362      -11343.228        2834.325           9.000                                                            
G21  20411297.853          -0.423         283.851           9.000                                                            
C08  38196504.310      -51927.429        1790.327          15.000                                                            
J01  38031379.524       -4594.486         157.357          13.000    38031386.719       -2703.244         116.226          18.000
E24  28348556.503   -98972083.462       -2001.482          15.000    28348572.392 -1093671188.247       -1494.923          20.000
> 2021 04 12 05 35 56.0000010  0  7
G22  24526601.087      -81423.032        2714.110          26.000                                                            
G09  25187887.488  -212076203.943       -2218.800          24.000    25187901.279  -942815776.620       -1653.776          19.000
G01  20785446.035      -14175.380        2829.025           9.000                                                            
G21  20411247.787        -284.540         283.497          11.000                                                            
C08  38196159.849      -53716.301        1789.321          14.000                                                            
J01  38031347.746       -4751.206         155.848          14.000    38031356.740       -2820.205         117.828          18.000
E24  28348940.537  -106041512.315       -1998.925          16.000    28348953.728 -1131383983.969       -1492.869          20.000
> 2021 04 12 05 35 57.0000010  0  7
G22  24526083.945      -84138.349        2716.717          29.000                                                            
G09  25188309.896  -219145415.568       -2216.692          23.000    25188321.588  -980528415.957       -1652.826          19.000
G01  20784907.608      -17003.657        2830.332           9.000                                                            
G21  20411193.825        -568.438         283.576           9.000                                                            
C08  38195815.387      -55504.243        1783.143          14.000                                                            
J01  38031313.869       -4908.124         157.748          14.000    38031326.161       -2939.423         120.037          19.000
E24  28349321.873  -113110944.041       -1996.505          16.000    28349332.366 -1169096782.873       -1489.982          19.000
> 2021 04 12 05 35 58.0000010  0  7
G22  24525566.803      -86855.627        2717.144          29.000                                                            
G09  25188731.404  -226214627.740       -2217.973          22.000    25188744.295 -1018241051.214       -1656.408          19.000
G01  20784367.682      -19832.135        2824.191           9.000                                                            
G21  20411142.260        -847.173         282.583           9.000                                                            
C08  38195471.825      -57287.290        1782.096          14.000                                                            
J01  38031280.892       -5066.366         158.077          15.000    38031295.882       -3059.596         120.040          19.000
E24  28349702.609  -120180376.441       -1997.469          16.000    28349712.203 -1206809580.916       -1491.132          19.000
> 2021 04 12 05 35 59.0000010  0  6
G22  24525050.261      -89571.631        2714.852          28.000                                                            
G09  25189154.111  -233283837.607       -2221.026          22.000    25189164.904 -1055953684.976       -1656.049          18.000
G21  20411086.799       -1130.463         282.833           9.000                                                            
C08  38195128.563      -59068.455        1778.952          15.000                                                            
J01  38031246.116       -5224.658         159.407          14.000    38031265.303       -3179.454         119.439          19.000
E24  28350086.943  -127249807.223       -1999.013          17.000    28350092.339 -1244522379.533       -1490.452          18.000
> 2021 04 12 05 36  0.0000010  0  6
G22  24524534.018      -92286.237        2714.182          30.000                                                            
G09  25189575.620  -240353046.006       -2221.326          24.000    25189588.511 -1093666316.269       -1660.683          18.000
G21  20411037.033       -1413.700         286.708           9.000                                                            
C08  38194789.198      -60846.080        1779.965          14.000                                                            
J01  38031213.139       -5383.676         159.666          14.000    38031235.024       -3298.806         119.251          19.000
E24  28350469.778  -134319237.214       -1999.688          17.000    28350472.177 -1282235177.508       -1492.529          18.000
> 2021 04 12 05 36  1.0000010  0  6
G22  24524018.076      -95000.676        2714.266          29.000                                                            
G09  25189999.226  -247422254.773       -2220.226          23.000    25190013.017 -1131378945.487       -1660.261          19.000
G01  20782635.781           0.000        2820.730          18.000                                                            
C08  38194445.036      -62625.190        1777.550          14.000                                                            
J01  38031179.562       -5544.231         162.478          13.000    38031204.445       -3418.056         119.609          19.000
E24  28350852.613  -141388666.693       -1998.857          17.000    28350852.613 -1319947974.116       -1493.664          18.000
> 2021 04 12 05 36  2.0000010  0  6
G22  24523502.732      -97714.234        2713.521          29.000                                                            
G09  25190424.332  -254491463.639       -2220.665          24.000    25190436.324 -1169091575.988       -1660.178          19.000
G01  20781983.432           0.279        2820.936          16.000                                                            
C08  38194102.973      -64402.161        1776.353          14.000                                                            
J01  38031145.985       -5705.532         158.960          13.000    38031174.166       -3537.095         118.389          19.000
E24  28351233.350  -148458097.048       -1999.009          17.000    28351234.849 -1357660769.355       -1494.593          18.000
> 2021 04 12 05 36  3.0000010  0  6
G22  24522985.890     -100428.338        2714.692          29.000                                                            
G09  25190850.037  -261560672.695       -2220.240          23.000    25190860.530 -1206804206.890       -1659.641          19.000
G01  20781459.395       -2819.366        2820.256          14.000                                                            
C08  38193761.209      -66179.465        1778.892          14.000                                                            
J01  38031116.006       -5863.724         157.262          13.000    38031144.187       -3655.385         118.355          19.000
E24  28351613.486  -155527526.892       -1999.383          18.000    28351614.086 -1395373565.435       -1493.426          18.000
> 2021 04 12 05 36  4.0000010  0  6
G22  24522468.448     -103143.098        2714.626          30.000                                                            
G09  25191271.546  -268629881.299       -2221.212          23.000    25191281.439 -1244516837.376       -1658.905          19.000
G01  20780918.569       -5638.256        2816.435          11.000                                                            
C08  38193418.547      -67959.240        1779.874          14.000                                                            
J01  38031086.327       -6019.776         155.647          14.000    38031114.207       -3773.081         117.108          19.000
E24  28351994.822  -162596956.685       -1999.936          17.000    28351993.923 -1433086362.116       -1492.986          19.000
> 2021 04 12 05 36  5.0000010  0  6
G22  24521953.105     -105857.577        2714.260          28.000                                                            
G09  25191695.452  -275699090.688       -2218.794          24.000    25191702.647 -1282229467.001       -1662.773          19.000
G01  20780386.738       -8454.231        2814.923          13.000                                                            
C08  38193075.884      -69738.792        1781.440          15.000                                                            
J01  38031055.748       -6176.293         155.592          14.000    38031084.528       -3890.104         117.163          19.000
E24  28352376.458  -169666385.487       -2000.812          18.000    28352374.959 -1470799159.809       -1491.766          20.000
> 2021 04 12 05 36  6.0000010  0  6
G22  24521437.162     -108572.744        2716.336          26.000                                                            
G09  25192117.260  -282768301.057       -2218.364          23.000    25192124.455 -1319942095.231       -1658.086          19.000
G01  20779853.107      -11268.542        2815.172          13.000                                                            
C08  38192733.221      -71519.976        1781.085          16.000                                                            
J01  38031026.368       -6332.995         158.180          13.000    38031054.549       -4008.172         118.590          19.000
E24  28352758.993  -176735808.764       -2011.056          17.000    28352755.995 -1508511956.197       -1494.672          20.000
> 2021 04 12 05 36  7.0000010  0  6
G22  24520922.419     -111289.811        2717.536          27.000                                                            
G09  25192539.068  -289837511.593       -2219.613          22.000    25192545.963 -1357654729.403       -1651.458          19.000
G01  20779320.076      -14084.875        2817.496          14.000                                                            
C08  38192389.059      -73301.698        1781.622          16.000                                                            
J01  38030996.389       -6492.277         159.933          13.000    38031023.670       -4127.503         119.902          19.000
E24  28353143.927  -183805230.368       -2003.649          17.000    28353136.732 -1546224751.007       -1494.835          20.000
> 2021 04 12 05 36  8.0000010  0  6
G22  24520406.176     -114007.287        2717.334          27.000                                                            
G09  25192961.476  -296906722.215       -2217.314          25.000    25192966.872 -1395367370.269       -1648.281          18.000
G01  20778791.542      -16902.679        2817.218          14.000                                                            
C08  38192046.396      -75084.420        1783.503          16.000                                                            
J01  38030966.110       -6654.623         162.570          14.000    38030992.492       -4247.703         120.141          19.000
E24  28353523.464  -190874656.805       -2001.282          16.000    28353516.869 -1583937546.871       -1492.493          20.000
> 2021 04 12 05 36  9.0000010  0  6
G22  24519890.833     -116724.106        2716.338          27.000                                                            
G09  25193382.984  -303975933.621       -2218.595          24.000    25193386.881 -1433080008.378       -1652.103          17.000
G01  20778264.207      -19718.171        2814.184          14.000                                                            
C08  38191701.935      -76866.836        1780.438          16.000                                                            
J01  38030936.730       -6821.612         170.075          12.000    38030961.313       -4367.781         120.064          19.000
E24  28353902.702  -197944085.128       -2000.489          16.000    28353897.006 -1621650344.951       -1491.853          20.000
> 2021 04 12 05 36 10.0000010  0  7
G22  24519370.693     -119439.918        2715.434          27.000                                                            
G09  25193803.593  -311045144.482       -2218.196          24.000    25193808.090 -1470792645.418       -1650.786          17.000
G01  20777734.174      -22533.530        2816.401          15.000                                                            
C08  38191359.272      -78648.642        1782.595          16.000                                                            
J01  38030906.152       -6992.128         170.739          13.000    38030930.435       -4487.752         119.640          19.000
E24  28354284.038  -205013514.027       -1999.612          15.000    28354277.742 -1659363141.783       -1494.516          20.000
C28  25565211.672           0.000       -2689.391          16.000                                                            
> 2021 04 12 05 36 11.0000010  0  7
G22  24518852.052     -122155.085        2715.220          26.000                                                            
G09  25194225.101  -318114354.785       -2218.457          24.000    25194231.397 -1508505281.594       -1654.347          17.000
G01  20777203.242      -25349.238        2816.178          15.000                                                            
C08  38191016.609      -80432.163        1784.049          16.000                                                            
J01  38030875.573       -7165.227         174.319          13.000    38030899.856       -4606.893         118.736          19.000
E24  28354664.474  -212082941.666       -2002.046          15.000    28354659.977 -1697075936.215       -1495.673          19.000
C28  25565727.915           0.528       -2693.917          11.000                                                            
> 2021 04 12 05 36 12.0000010  0  7
G22  24518335.210     -124870.615        2715.803          26.000                                                            
G09  25194644.810  -325183566.626       -2216.517          23.000    25194653.804 -1546217917.681       -1654.184          17.000
G01  20776668.712      -28165.073        2816.156          15.000                                                            
C08  38190674.546      -82217.232        1785.122          16.000                                                            
J01  38030838.998       -7339.161         173.748          13.000    38030869.277       -4725.993         119.188          19.000
E24  28355044.311  -219152370.086       -1998.575          16.000    28355041.913 -1734788730.483       -1497.084          19.000
C28  25566239.061    -7068737.328       -2689.518          15.000                                                            
> 2021 04 12 05 36 13.0000010  0  7
G22  24517816.269     -127586.611        2716.437          24.000                                                            
G09  25195063.620  -332252780.561       -2212.959          20.000    25195076.511 -1583930552.576       -1655.685          18.000
G01  20776141.377      -30981.507        2816.698          16.000                                                            
C08  38190329.785      -84002.480        1784.120          15.000                                                            
J01  38030809.319       -7513.002         174.697          14.000    38030839.298       -4845.370         119.041          18.000
E24  28355422.050  -226221801.622       -1997.321          16.000    28355423.849 -1772501524.583       -1496.841          19.000
C28  25566752.605   -14137475.519       -2691.450          14.000                                                            
> 2021 04 12 05 36 14.0000010  0  8
G22  24517298.228     -130303.416        2716.928          25.000                                                            
G09  25195480.632  -339321997.565       -2211.434           9.000    25195498.919 -1621643186.426       -1656.043          18.000
G01  20775612.543      -33797.565        2815.349          18.000                                                            
G16  24512795.345           0.000       -2261.511          17.000                                                            
C08  38189983.824      -85787.526        1784.987          15.000                                                            
J01  38030778.140       -7686.462         173.496          15.000    38030808.719       -4966.279         120.968          18.000
E24  28355798.289  -233291233.310       -1997.741          16.000    28355805.784 -1810214316.135       -1497.629          18.000
C28  25567267.649   -21206214.446       -2688.885          15.000                                                            
> 2021 04 12 05 36 15.0000010  0  8
G22  24516777.488     -133020.346        2716.815          24.000                                                            
G09  25195907.536  -346391213.962       -2213.298          13.000    25195921.626 -1659355819.558       -1656.723          18.000
G01  20775081.310      -36610.929        2814.053          18.000                                                            
G16  24513213.855           0.084       -2261.218           9.000                                                            
C08  38189638.763      -87569.399        1780.015          15.000                                                            
J01  38030747.561       -7859.064         171.259          14.000    38030778.740       -5086.401         119.588          17.000
E24  28356177.527  -240360664.337       -1998.588          15.000    28356187.720 -1847927106.400       -1500.966          18.000
C28  25567780.294   -28274952.220       -2692.698          14.000                                                            
> 2021 04 12 05 36 16.0000010  0  8
G22  24516261.845     -135738.123        2718.921          25.000                                                            
G09  25196326.346  -353460429.740       -2213.189          15.000    25196343.734 -1697068453.324       -1654.646          19.000
G01  20774552.177      -39425.287        2814.947          19.000                                                            
G16  24513630.866    -7069162.280       -2267.730          10.000                                                            
C08  38189293.702      -89347.836        1777.666          15.000                                                            
J01  38030712.186       -8030.069         169.902          14.000    38030748.161       -5206.835         121.758          16.000
E24  28356557.364  -247430095.595       -1997.417          16.000    28356570.555 -1885639898.297       -1493.332          17.000
C28  25568294.438   -35343684.425       -2698.646          13.000                                                            
> 2021 04 12 05 36 17.0000010  0  8
G22  24515742.605     -138458.274        2720.758          24.000                                                            
G09  25196747.854  -360529646.235       -2213.515          16.000    25196765.542 -1734781089.077       -1653.097          19.000
G01  20774019.446      -42240.472        2815.586          20.000                                                            
G16  24514054.773   -14138322.808       -2269.610          10.000                                                            
C08  38188951.939      -91122.016        1772.512          14.000                                                            
J01  38030680.108       -8197.185         166.459          14.000    38030717.282       -5329.629         123.606          15.000
E24  28356935.402  -254499527.448       -1997.274          16.000    28356949.193 -1923352697.647       -1488.760          16.000
C28  25568808.882   -42412414.692       -2696.795          11.000                                                            
> 2021 04 12 05 36 18.0000010  0  8
G22  24515221.565     -141179.029        2720.701          25.000                                                            
G09  25197168.463  -367598861.557       -2214.511          17.000    25197187.350 -1772493725.135       -1653.999          19.000
G01  20773493.010      -45055.852        2815.086          20.000                                                            
G16  24514481.078   -21207476.698       -2276.194           9.000                                                            
C08  38188608.377      -92897.415        1774.794          14.000                                                            
J01  38030651.628       -8360.793         158.994          13.000    38030686.104       -5451.910         119.991          15.000
E24  28357312.841  -261568958.672       -1998.705          16.000    28357328.130 -1961065497.351       -1491.653          16.000
C28  25569324.825   -49481150.974       -2690.518          11.000                                                            
> 2021 04 12 05 36 19.0000010  0  8
G22  24514704.423     -143898.725        2719.245          25.000                                                            
G09  25197589.971  -374668075.772       -2214.431          18.000    25197609.158 -1810206361.172       -1652.951          19.000
G01  20772959.080      -47872.372        2816.117          19.000                                                            
G16  24514911.880   -28276628.276       -2283.773           9.000                                                            
C08  38188266.313      -94671.018        1774.287          13.000                                                            
J01  38030623.747       -8518.454         156.351          14.000    38030655.825       -5572.517         121.375          15.000
E24  28357692.678  -268638389.398       -1998.372          17.000    28357707.667 -1998778294.843       -1493.136          16.000
C28  25569838.069   -56549887.074       -2692.366          10.000                                                            
> 2021 04 12 05 36 20.0000010  0  8
G22  24514186.981     -146618.297        2719.841          25.000                                                            
G09  25198012.679  -381737290.071       -2216.107          18.000    25198031.266 -1847918997.479       -1653.939          20.000
G01  20772425.149      -50688.596        2818.555          19.000                                                            
G16  24515343.581   -35345772.740       -2282.776           9.000                                                            
C08  38187923.351      -96445.985        1775.027          13.000                                                            
J01  38030597.066       -8673.503         152.018          14.000    38030625.846       -5693.567         120.944          16.000
E24  28358074.613  -275707819.864       -1999.263          17.000    28358087.804 -2036491090.503       -1494.341          17.000
C28  25570353.413   -63618620.039       -2696.814          11.000                                                            
> 2021 04 12 05 36 21.0000010  0  8
G22  24513669.240     -149337.273        2718.042          26.000                                                            
G09  25198432.088  -388806503.447       -2215.152          19.000    25198453.074 -1885631633.019       -1654.210          20.000
G01  20771892.418      -53507.596        2820.782          19.000                                                            
G16  24515776.481   -42414919.857       -2278.718          10.000                                                            
C08  38187579.489      -98226.297        1785.410          12.000                                                            
J01  38030568.585       -8824.454         150.271          13.000    38030595.267       -5813.957         119.924          16.000
E24  28358455.050  -282777248.620       -2000.945          17.000    28358467.641 -2074203885.316       -1495.078          18.000
C28  25570867.857   -70687348.089       -2700.767          11.000                                                            
> 2021 04 12 05 36 22.0000010  0  8
G22  24513153.897     -152055.318        2718.925          24.000                                                            
G09  25198852.997  -395875718.330       -2214.930          19.000    25198875.182 -1923344268.602       -1654.015          19.000
G01  20771358.488      -56327.443        2816.383          18.000                                                            
G16  24516209.082   -49484071.941       -2272.236           9.000                                                            
C08  38187235.327     -100012.384        1786.147          11.000                                                            
J01  38030541.004       -8974.707         148.979          13.000    38030564.688       -5934.127         120.564          17.000
E24  28358836.986  -289846676.606       -2000.772          18.000    28358848.078 -2111916680.222       -1494.492          19.000
C28  25571384.999   -77756069.868       -2709.354          12.000                                                            
> 2021 04 12 05 36 23.0000010  0  8
G22  24512637.954     -154772.730        2715.889          23.000                                                            
G09  25199277.203  -402944932.267       -2215.188          19.000    25199296.690 -1961056904.214       -1654.140          20.000
G01  20770823.058      -59143.868        2815.511          18.000                                                            
G16  24516639.584   -56553226.851       -2275.438          10.000                                                            
C08  38186890.266     -101799.925        1788.809          12.000                                                            
J01  38030515.522       -9127.186         154.781          12.000    38030533.809       -6055.022         120.731          17.000
E24  28359217.422  -296916105.063       -2001.575          17.000    28359228.215 -2149629475.202       -1494.372          19.000
C28  25571899.143   -84824789.186       -2706.601          11.000                                                            
> 2021 04 12 05 36 24.0000010  0  8
G22  24512123.210     -157489.228        2717.309          24.000                                                            
G09  25199700.510  -410014147.064       -2215.148          19.000    25199719.097 -1998769539.353       -1654.543          20.000
G01  20770289.428      -61956.199        2809.210          18.000                                                            
G16  24517070.685   -63622379.449       -2280.214          11.000                                                            
C08  38186546.104     -103588.675        1787.615          13.000                                                            
J01  38030488.241       -9283.484         156.135          13.000    38030502.931       -6176.001         120.572          17.000
E24  28359598.159  -303985532.558       -2001.741          17.000    28359609.251 -2187342269.632       -1495.804          19.000
C28  25572414.486   -91893512.063       -2701.896          10.000                                                            
> 2021 04 12 05 36 25.0000010  0  8
G22  24511606.968     -160206.548        2716.876          24.000                                                            
G09  25200123.218  -417083361.087       -2214.761          19.000    25200140.306 -2036482174.355       -1654.594          19.000
G01  20769756.996      -64765.099        2807.762          18.000                                                            
G16  24517500.887   -70691527.636       -2284.523           9.000                                                            
C08  38186202.242     -105376.692        1789.490          13.000                                                            
J01  38030461.559       -9439.370         154.690          14.000    38030472.652       -6296.702         120.394          18.000
E24  28359977.996  -311054959.766       -2002.089          17.000    28359989.987 -2225055063.554       -1495.382          19.000
C28  25572930.129   -98962240.725       -2695.615           9.000                                                            
> 2021 04 12 05 36 26.0000010  0  8
G22  24511090.425     -162924.917        2719.098          26.000                                                            
G09  25200546.225  -424152576.349       -2211.114          23.000    25200562.114 -2074194809.743       -1653.323          19.000
G01  20769225.464      -67573.130        2808.389          18.000                                                            
G16  24517930.790   -77760673.085       -2281.142          10.000                                                            
C08  38185855.682     -107166.819        1788.772          14.000                                                            
J01  38030432.479       -9595.120         157.644          15.000    38030441.773       -6417.609         121.193          18.000
E24  28360359.632  -318124387.234       -2000.933          16.000    28360369.825 -2262767858.591       -1493.744          20.000
C28  25573443.374  -106030975.489       -2689.435           9.000                                                            
> 2021 04 12 05 36 27.0000010  0  8
G22  24510571.484     -165645.246        2721.339          26.000                                                            
G09  25200966.834  -431221795.547       -2209.011          24.000    25200983.022 -2111907446.646       -1651.837          19.000
G01  20768691.834      -70382.268        2809.198          18.000                                                            
G16  24518359.493   -84829821.972       -2278.677          10.000                                                            
C08  38185508.523     -108956.011        1786.824          14.000                                                            
J01  38030403.100       -9754.824         161.254          14.000    38030410.295       -6539.987         123.281          18.000
E24  28360739.469  -325193816.345       -1998.949          16.000    28360749.062 -2300480654.990       -1492.224          20.000
C28  25573954.520  -113099718.754       -2684.154           9.000                                                            
> 2021 04 12 05 36 28.0000010  0  8
G22  24510053.743     -168366.688        2721.563          25.000                                                            
G09  25201386.243  -438291015.436       -2209.041          24.000    25201403.332 -2149620084.831       -1650.969          19.000
G01  20768159.702      -73191.444        2810.634          18.000                                                            
G16  24518785.498   -91898974.902       -2272.057           9.000                                                            
C08  38185164.361     -110743.331        1790.080          15.000                                                            
J01  38030371.022       -9918.030         165.357          16.000    38030378.817       -6663.669         123.599          18.000
E24  28361118.706  -332263247.420       -1997.844          17.000    28361128.599 -2338193452.733       -1491.686          20.000
C28  25574466.565  -120168467.266       -2676.282           9.000                                                            
> 2021 04 12 05 36 29.0000010  0  8
G22  24509536.001     -171088.052        2721.089          25.000                                                            
G09  25201805.653  -445360235.415       -2209.880          24.000    25201823.641 -2187332723.499       -1651.113          19.000
G01  20767624.872      -76001.856        2810.784          17.000                                                            
G16  24519212.702   -98968130.981       -2274.358           9.000                                                            
C08  38184819.300     -112534.035        1786.956          14.000                                                            
J01  38030341.642      -10083.561         165.779          16.000    38030346.739       -6787.245         123.193          18.000
E24  28361497.344  -339332678.526       -1998.671          17.000    28361508.736 -2375906250.578       -1491.934          20.000
C28  25574976.512  -127237221.797       -2675.729           9.000                                                            
> 2021 04 12 05 36 30.0000010  0  8
G22  24509017.360     -173807.861        2718.605          23.000                                                            
G09  25202225.962  -452429453.850       -2211.141          22.000    25202244.249 -2225045359.606       -1653.801          19.000
G01  20767088.244      -78814.238        2814.772          16.000                                                            
G16  24519634.510  -106037288.522       -2269.950           9.000                                                            
C08  38184472.740     -114320.429        1783.895          13.000                                                            
J01  38030311.063      -10251.072         167.467          15.000    38030315.860       -6909.548         121.554          18.000
E24  28361877.781  -346402109.506       -1996.259          17.000    28361889.472 -2413619046.546       -1494.217          20.000
C28  25575486.159  -134305975.617       -2675.025          10.000                                                            
> 2021 04 12 05 36 31.0000010  0  7
G22  24508495.721     -176527.874        2719.899          24.000                                                            
G09  25202646.871  -459498671.446       -2211.919          21.000    25202666.057 -2262757995.877       -1652.350          19.000
G01  20766551.615      -81629.194        2815.297          16.000                                                            
C08  38184129.177     -116105.629        1786.763          13.000                                                            
J01  38030275.388      -10418.768         167.869          15.000    38030285.281       -7030.794         120.848          18.000
E24  28362260.316  -353471540.483       -2000.078          17.000    28362270.209 -2451331841.274       -1495.301          19.000
C28  25575995.507  -141374731.522       -2668.108          12.000                                                            
> 2021 04 12 05 36 32.0000010  0  7
G22  24507976.181     -179247.641        2719.037          25.000                                                            
G09  25203067.180  -466567888.015       -2213.462          22.000    25203086.966 -2300470633.042       -1652.457          18.000
G01  20766017.086      -84444.083        2815.066          16.000                                                            
C08  38183786.814     -117890.716        1781.700          12.000                                                            
J01  38030243.310      -10585.989         167.427          15.000    38030253.803       -7151.460         120.363          18.000
E24  28362642.251  -360540969.057       -2001.740          17.000    28362651.545 -2489044634.234       -1497.226          18.000
C28  25576503.355  -148443491.760       -2671.005          12.000                                                            
> 2021 04 12 05 36 33.0000010  0  7
G22  24507464.136     -181965.849        2717.831          24.000                                                            
G09  25203487.489  -473637104.034       -2212.493          23.000    25203508.174 -2338183270.175       -1653.410          17.000
G01  20765481.956      -87257.820        2813.906          16.000                                                            
C08  38183444.451     -119670.561        1777.479           9.000                                                            
J01  38030211.832      -10753.191         164.760          13.000    38030222.925       -7271.844         120.363          19.000
E24  28363023.887  -367610395.792       -2003.360          16.000    28363032.281 -2526757426.616       -1496.883          17.000
C28  25577011.204  -155512247.963       -2675.361           9.000                                                            
> 2021 04 12 05 36 34.0000010  0  7
G22  24506949.392     -184683.523        2717.438          25.000                                                            
G09  25203908.098  -480706321.104       -2210.919          22.000    25203929.383 -2375895906.191       -1653.640          17.000
G01  20764946.527      -90070.036        2811.471          16.000                                                            
C08  38183102.688     -121448.730        1778.936           9.000                                                            
J01  38030178.255      -10916.683         163.991          12.000    38030192.346       -7392.336         120.570          19.000
E24  28363405.223  -374679821.261       -2003.745          16.000    28363413.617 -2564470219.802       -1496.049          17.000
C28  25577520.851  -162581001.370       -2676.092           9.000                                                            
> 2021 04 12 05 36 35.0000010  0  7
G22  24506433.149     -187401.181        2717.942          26.000                                                            
G09  25204329.905  -487775538.437       -2212.708          22.000    25204350.591 -2413608542.280       -1653.092          17.000
G01  20764412.896      -92879.904        2808.485          15.000                                                            
C08  38182760.625     -123226.357        1776.461          12.000                                                            
J01  38030146.477      -11080.883         163.563          13.000    38030161.467       -7512.871         120.889          20.000
E24  28363785.360  -381749246.428       -2004.159          17.000    28363794.654 -2602183013.249       -1496.282          18.000
C28  25578033.196  -169649753.179       -2677.787           9.000                                                            
> 2021 04 12 05 36 36.0000010  0  7
G22  24505914.808     -190120.192        2720.868          28.000                                                            
G09  25204751.114  -494844755.501       -2211.064          26.000    25204771.800 -2451321179.479       -1650.944          17.000
G01  20763876.268      -95689.252        2810.881          15.000                                                            
C08  38182419.161     -125006.109        1782.461          13.000                                                            
J01  38030119.496      -11242.885         160.658          13.000    38030130.289       -7634.447         122.788          20.000
E24  28364166.396  -388818672.175       -2002.517          18.000    28364175.390 -2639895807.483       -1494.483          19.000
C28  25578545.841  -176718501.501       -2681.647           9.000                                                            
> 2021 04 12 05 36 37.0000010  0  7
G22  24505397.067     -192841.764        2722.009          29.000                                                            
G09  25205171.723  -501913974.998       -2210.258          24.000    25205192.408 -2489033818.706       -1650.113          17.000
G01  20763337.541      -98500.944        2811.758          15.000                                                            
C08  38182077.398     -126792.223        1787.709          13.000                                                            
J01  38030090.716      -11404.276         161.304          14.000    38030098.810       -7757.964         124.034          20.000
E24  28364546.833  -395888100.149       -2000.442          19.000    28364556.126 -2677608603.181       -1493.478          19.000
C28  25579057.587  -183787248.377       -2681.686           9.000                                                            
> 2021 04 12 05 36 38.0000010  0  7
G22  24504881.124     -195563.527        2720.960          28.000                                                            
G09  25205593.830  -508983194.941       -2209.133          24.000    25205612.418 -2526746458.241       -1650.275          17.000
G01  20762800.912     -101309.845        2808.389          15.000                                                            
C08  38181736.534     -128578.792        1786.122          14.000                                                            
J01  38030062.236      -11563.043         156.923          14.000    38030067.332       -7881.884         123.392          20.000
E24  28364928.768  -402957528.866       -2000.696          20.000    28364937.163 -2715321398.990       -1494.260          20.000
C28  25579570.532  -190855993.722       -2684.495           9.000                                                            
> 2021 04 12 05 36 39.0000010  0  7
G22  24504363.382     -198284.257        2720.461          27.000                                                            
G09  25206015.339  -516052414.645       -2210.170          25.000    25206033.326 -2564459097.046       -1650.409          17.000
G01  20762264.883     -104116.369        2805.821          15.000                                                            
C08  38181394.171     -130366.407        1787.493          14.000                                                            
J01  38030033.456      -11720.813         158.329          15.000    38030036.154       -8005.095         123.032          20.000
E24  28365310.404  -410026956.800       -2001.821          20.000    28365318.199 -2753034193.862       -1494.892          21.000
C28  25580085.575  -197924737.741       -2684.490          10.000                                                            
> 2021 04 12 05 36 40.0000010  0  7
G22  24503847.140     -201004.329        2719.576          24.000                                                            
G09  25206434.748  -523121631.597       -2213.167          24.000    25206454.834 -2602171735.536       -1651.980          17.000
G01  20761727.655     -106922.210        2805.212          16.000                                                            
C08  38181052.407     -132153.593        1787.422          13.000                                                            
J01  38030001.378      -11879.320         158.177          13.000    38030004.676       -8128.022         123.016          20.000
E24  28365690.241  -417096384.171       -2002.452          21.000    28365699.235 -2790746988.198       -1495.902          21.000
C28  25580598.220  -204993482.317       -2684.252          11.000                                                            
> 2021 04 12 05 36 41.0000010  0  7
G22  24503332.096     -203723.272        2718.272          25.000                                                            
G09  25206856.257  -530190846.483       -2214.660          25.000    25206876.343 -2639884372.946       -1652.148          17.000
G01  20761191.926     -109722.932        2799.988          15.000                                                            
C08  38180710.044     -133943.206        1791.489          12.000                                                            
J01  38029971.998      -12036.044         156.507          13.000    38029973.197       -8250.700         121.918          19.000
E24  28366071.877  -424165810.528       -2003.465          21.000    28366080.871 -2828459780.960       -1497.525          20.000
C28  25581112.964  -212062227.288       -2684.107          10.000                                                            
> 2021 04 12 05 36 42.0000010  0  8
G22  24502817.053     -206441.244        2717.473          26.000                                                            
G09  25207277.465  -537260061.728       -2213.508          24.000    25207297.851 -2677597009.911       -1653.717          17.000
G01  20760657.696     -112519.543        2795.856          15.000                                                            
C06  39523541.621           0.000       -1495.212          19.000                                                            
C08  38180366.482     -135739.671        1798.718          12.000                                                            
J01  38029942.918      -12192.918         157.228          13.000    38029942.619       -8372.154         120.916          19.000
E24  28366453.213  -431235235.499       -2004.887          20.000    28366462.806 -2866172572.740       -1497.893          21.000
C28  25581626.508  -219130975.897       -2678.537           9.000                                                            
> 2021 04 12 05 36 43.0000010  0  8
G22  24502301.110     -209158.151        2716.443          27.000                                                            
G09  25207701.072  -544329277.158       -2214.870          25.000    25207719.059 -2715309645.774       -1654.071          18.000
G01  20760121.667     -115315.646        2794.891          15.000                                                            
C06  39523854.005           0.675       -1500.579          13.000                                                            
C08  38180022.620     -137536.346        1797.453          10.000                                                            
J01  38029910.841      -12352.182         161.514          14.000    38029912.939       -8492.509         119.585          18.000
E24  28366833.949  -438304659.250       -2003.195          20.000    28366844.742 -2903885364.422       -1497.886          21.000
C28  25582140.653  -226199723.638       -2681.685          10.000                                                            
> 2021 04 12 05 36 44.0000010  0  8
G22  24501786.066     -211874.698        2716.639          28.000                                                            
G09  25208124.079  -551398492.682       -2213.218          26.000    25208140.268 -2753022281.527       -1653.490          18.000
G01  20759585.938     -118111.085        2798.915          13.000                                                            
C06  39524128.915    -7069927.074       -1501.387          13.000                                                            
C08  38179681.157     -139329.499        1791.652           9.000                                                            
J01  38029878.763      -12515.234         164.420          13.000    38029882.360       -8612.155         119.545          18.000
E24  28367213.487  -445374083.773       -2005.854          20.000    28367226.678 -2941598156.965       -1495.233          21.000
C28  25582655.096  -233268465.847       -2688.551           9.000                                                            
> 2021 04 12 05 36 45.0000010  0  8
G22  24501268.625     -214591.438        2716.820          26.000                                                            
G09  25208545.887  -558467708.225       -2214.008          25.000    25208561.776 -2790734917.665       -1653.495          19.000
G01  20759055.305     -120910.065        2795.104          10.000                                                            
C06  39524409.221   -14139855.507       -1500.875          12.000                                                            
C08  38179338.794     -141115.062        1781.291           9.000                                                            
J01  38029849.383      -12679.331         164.053          14.000    38029852.081       -8731.477         119.500          18.000
E24  28367594.823  -452443505.698       -2006.641          19.000    28367608.014 -2979310950.613       -1494.364          21.000
C28  25583171.939  -240337201.181       -2694.370           9.000                                                            
> 2021 04 12 05 36 46.0000010  0  8
G22  24500751.782     -217309.638        2719.922          25.000                                                            
G09  25208967.095  -565536923.067       -2213.785          24.000    25208982.984 -2828447554.410       -1651.297          19.000
G01  20758522.274     -123704.581        2791.198          12.000                                                            
C06  39524693.124   -21209785.303       -1499.010          14.000                                                            
C08  38178998.829     -142896.220        1784.390           9.000                                                            
J01  38029815.507      -12844.862         166.368          15.000    38029821.502       -8851.873         121.499          19.000
E24  28367974.960  -459512928.465       -2003.647          20.000    28367990.849 -3017023745.245       -1497.174          21.000
C28  25583689.081  -247405928.276       -2709.990           9.000                                                            
> 2021 04 12 05 36 47.0000010  0  8
G22  24500232.542     -220030.595        2721.526          25.000                                                            
G09  25209387.104  -572606139.935       -2211.572          26.000    25209403.593 -2866160193.247       -1650.251          19.000
G01  20757989.843     -126494.431        2786.568          11.000                                                            
C06  39524978.227   -28279715.580       -1500.211          13.000                                                            
C08  38178659.764     -144680.488        1784.138           9.000                                                            
J01  38029787.026      -13010.821         166.045          16.000    38029790.624       -8974.079         122.591          19.000
E24  28368355.696  -466582353.752       -2002.328          20.000    28368373.084 -3054736541.256       -1491.316          21.000
C28  25584210.120  -254474644.396       -2721.633           9.000                                                            
> 2021 04 12 05 36 48.0000010  0  8
G22  24499710.004     -222752.202        2721.163          25.000                                                            
G09  25209809.512  -579675358.539       -2210.028          24.000    25209823.602 -2903872832.541       -1650.346          18.000
G01  20757455.013     -129280.676        2785.558          12.000                                                            
C06  39525263.929   -35349641.089       -1504.662          13.000                                                            
C08  38178318.000     -146464.305        1780.411           9.000                                                            
J01  38029757.047      -13177.300         166.837          17.000    38029759.445       -9096.853         123.037          19.000
E24  28368737.632  -473651779.352       -2004.385          20.000    28368754.720 -3092449341.715       -1489.876          20.000
C28  25584732.358  -261543348.593       -2725.583           9.000                                                            
> 2021 04 12 05 36 49.0000010  0  8
G22  24499190.164     -225472.706        2720.231          25.000                                                            
G09  25210229.221  -586744577.638       -2210.872          25.000    25210243.911 -2941585471.329       -1651.487          18.000
G01  20756921.083     -132064.374        2779.605          13.000                                                            
C06  39525550.231   -42419560.633       -1511.479          11.000                                                            
C08  38177976.837     -148244.434        1781.379          10.000                                                            
J01  38029724.969      -13342.019         162.695          18.000    38029727.368       -9219.711         122.588          19.000
E24  28369118.368  -480721203.718       -2007.149          19.000    28369135.156 -3130162142.872       -1487.499          19.000
C28  25585256.396  -268612049.680       -2726.688           9.000                                                            
> 2021 04 12 05 36 50.0000010  0  8
G22  24498671.523     -228191.600        2718.601          25.000                                                            
G09  25210648.931  -593813794.503       -2213.227          26.000    25210664.520 -2979298108.989       -1652.409          18.000
G01  20756386.852     -134844.108        2781.773          13.000                                                            
C06  39525837.132   -49489472.821       -1517.885          11.000                                                            
C08  38177637.771     -150024.995        1781.530          10.000                                                            
J01  38029694.390      -13505.800         164.426          18.000    38029695.889       -9342.493         122.814          19.000
E24  28369499.104  -487790624.613       -2006.913          19.000    28369516.792 -3167874942.207       -1490.904          18.000
C28  25585779.533  -275680749.564       -2728.610           9.000                                                            
> 2021 04 12 05 36 51.0000010  0  8
G22  24498151.682     -230909.797        2718.475          25.000                                                            
G09  25211070.139  -600883011.188       -2212.153          25.000    25211085.429 -3017010745.373       -1653.137          17.000
G01  20755854.421     -137627.062        2783.148          14.000                                                            
C06  39526127.331   -56559376.636       -1528.340           9.000                                                            
C08  38177297.807     -151806.268        1782.328           9.000                                                            
J01  38029657.516      -13669.617         161.258          18.000    38029664.411       -9464.943         121.605          18.000
E24  28369881.340  -494860044.996       -2009.863          18.000    28369901.426 -3205587733.596       -1503.465          17.000
C28  25586302.371  -282749447.481       -2733.225           9.000                                                            
> 2021 04 12 05 36 52.0000010  0  8
G22  24497636.339     -233627.926        2717.853          27.000                                                            
G09  25211490.448  -607952228.036       -2212.851          25.000    25211506.937 -3054723381.837       -1653.176          17.000
G01  20755321.690     -140411.192        2786.915          15.000                                                            
C06  39526420.229   -63629268.694       -1542.716           9.000                                                            
C08  38176959.341     -153587.791        1782.791           9.000                                                            
J01  38029625.738      -13829.490         159.981          18.000    38029633.533       -9586.136         120.280          18.000
E24  28370262.676  -501929464.487       -2010.050          18.000    28370287.259 -3243300519.897       -1503.078          17.000
C28  25586826.409  -289818142.298       -2732.680           9.000                                                            
> 2021 04 12 05 36 53.0000010  0  8
G22  24497118.897     -236345.664        2717.211          27.000                                                            
G09  25211911.057  -615021445.923       -2210.553          21.000    25211927.546 -3092436017.284       -1654.957          17.000
G01  20754791.057     -143200.198        2791.513          15.000                                                            
C06  39526711.927   -70699153.600       -1547.806           9.000                                                            
C08  38176619.376     -155369.262        1778.320          10.000                                                            
J01  38029593.360      -13989.637         159.004          17.000    38029602.654       -9706.431         120.132          18.000
E24  28370644.911  -508998884.155       -2012.413          19.000    28370670.094 -3281013306.772       -1503.310          17.000
C28  25587349.547  -296886835.196       -2739.832           9.000                                                            
> 2021 04 12 05 36 54.0000010  0  8
G22  24496602.355     -239063.214        2717.305          26.000                                                            
G09  25212333.465  -622090662.758       -2213.232          18.000    25212349.054 -3130148649.682       -1655.102          16.000
G01  20754257.427     -145993.117        2793.372          15.000                                                            
C06  39527005.124   -77769032.396       -1555.018           9.000                                                            
C08  38176279.712     -157147.058        1777.817           9.000                                                            
J01  38029558.584      -14146.502         155.203          16.000    38029572.075       -9826.754         120.354          18.000
E24  28371027.746  -516068301.522       -2012.359          19.000    28371051.730 -3318726094.012       -1500.841          17.000
C28  25587874.483  -303955523.399       -2740.109           9.000                                                            
> 2021 04 12 05 36 55.0000010  0  8
G22  24496087.312     -241781.315        2719.201          26.000                                                            
G09  25212756.172  -629159878.181       -2215.008          20.000    25212770.562 -3167861283.620       -1654.963          15.000
G01  20753725.595     -148786.731        2793.541          14.000                                                            
C06  39527300.719   -84838903.158       -1562.872           9.000                                                            
C08  38175940.346     -158924.635        1778.269          10.000                                                            
J01  38029527.106      -14302.745         157.167          14.000    38029541.196       -9947.600         121.193          18.000
E24  28371409.082  -523137718.785       -2009.854          19.000    28371432.166 -3356438883.466       -1499.348          17.000
C28  25588396.722  -311024209.263       -2748.545           9.000                                                            
> 2021 04 12 05 36 56.0000010  0  7
G22  24495569.870     -244500.798        2719.693          26.000                                                            
G09  25213181.578  -636229093.229       -2212.442          20.000    25213192.070 -3205573918.717       -1656.465          13.000
G01  20753191.664     -151579.769        2793.440          14.000                                                            
C06  39527598.413   -91908765.686       -1570.725           9.000                                                            
C08  38175602.480     -160702.825        1778.102          12.000                                                            
J01  38029495.928      -14460.546         157.843          13.000    38029510.018      -10069.432         122.473          18.000
E24  28371788.919  -530207139.231       -2007.955          20.000    28371812.003 -3394151674.906       -1497.240          18.000
> 2021 04 12 05 36 57.0000010  0  7
G22  24495049.730     -247220.519        2719.974          28.000                                                            
G09  25213598.889  -643298310.258       -2210.539          20.000    25213612.679 -3243286555.838       -1650.159          14.000
G01  20752656.235     -154373.949        2795.485          14.000                                                            
C06  39527894.308   -98978621.783       -1571.997           9.000                                                            
C08  38175263.115     -162480.888        1777.602          12.000                                                            
J01  38029465.349      -14620.200         161.454          13.000    38029478.240      -10192.631         123.560          17.000
E24  28372169.955  -537276561.019       -2005.911          20.000    28372191.241 -3431864468.267       -1496.064          18.000
> 2021 04 12 05 36 58.0000010  0  7
G22  24494531.988     -249940.695        2719.925          27.000                                                            
G09  25214019.797  -650367529.450       -2208.735          20.000    25214032.688 -3280999195.899       -1648.992          15.000
G01  20752123.804     -157168.543        2794.295          15.000                                                            
C06  39528192.002  -106048476.216       -1573.727           9.000                                                            
C08  38174923.450     -164256.304        1773.075          13.000                                                            
J01  38029435.370      -14782.253         161.720          13.000    38029446.462      -10315.754         122.957          17.000
E24  28372551.891  -544345984.668       -2004.861          20.000    28372571.378 -3469577261.386       -1497.169          18.000
> 2021 04 12 05 36 59.0000010  0  7
G22  24494013.647     -252660.206        2719.751          26.000                                                            
G09  25214439.507  -657436750.339       -2207.207          21.000    25214452.698 -3318711835.908       -1649.940          16.000
G01  20751590.173     -159961.760        2791.387          16.000                                                            
C06  39528490.895  -113118330.389       -1573.649           9.000                                                            
C08  38174584.985     -166028.744        1771.893          13.000                                                            
J01  38029403.592      -14945.271         164.652          14.000    38029414.984      -10438.622         122.718          18.000
E24  28372933.227  -551415410.119       -2005.101          20.000    28372952.414 -3507290053.484       -1497.887          19.000
> 2021 04 12 05 37  0.0000010  0  7
G22  24493496.805     -255378.959        2716.853          27.000                                                            
G09  25214859.516  -664505972.424       -2206.579          21.000    25214873.306 -3356424474.607       -1651.925          17.000
G01  20751059.540     -162752.203        2788.621          17.000                                                            
C06  39528791.887  -120188181.050       -1583.705           9.000                                                            
C08  38174246.819     -167799.577        1770.851          13.000                                                            
J01  38029370.615      -15109.885         165.289          15.000    38029384.405      -10560.560         121.106          18.000
E24  28373315.163  -558484831.119       -2010.426          20.000    28373333.750 -3545002844.709       -1498.965          20.000
> 2021 04 12 05 37  1.0000010  0  7
G22  24492981.462     -258095.512        2715.916          29.000                                                            
G09  25215279.225  -671575193.937       -2208.967          23.000    25215293.915 -3394137112.239       -1652.128          18.000
G01  20750528.008     -165542.403        2790.743          18.000                                                            
C06  39529096.176  -127258022.235       -1594.921           9.000                                                            
C08  38173910.752     -169572.299        1774.907          13.000                                                            
J01  38029339.136      -15275.759         167.026          16.000    38029353.526      -10681.587         121.081          18.000
E24  28373698.297  -565554250.327       -2008.430          20.000    28373715.685 -3582715634.999       -1499.805          20.000
> 2021 04 12 05 37  2.0000010  0  6
G22  24492464.919     -260812.311        2717.051          28.000                                                            
G09  25215702.233  -678644413.467       -2210.375          25.000    25215714.524 -3431849749.620       -1652.364          18.000
G01  20749996.776     -168334.949        2793.451          17.000                                                            
C08  38173574.085     -171350.708        1780.507          13.000                                                            
J01  38029308.558      -15443.636         169.735          16.000    38029322.648      -10802.600         121.113          19.000
E24  28374084.430  -572623670.551       -2009.004          20.000    28374097.021 -3620428424.634       -1500.011          21.000
> 2021 04 12 05 37  3.0000010  0  7
G22  24491950.176     -263529.946        2718.023          28.000                                                            
G09  25216124.340  -685713632.858       -2209.756          24.000    25216134.234 -3469562387.224       -1651.305          18.000
G01  20749462.546     -171127.585        2791.094          17.000                                                            
G16  24533891.740           0.000       -2273.442          19.000                                                            
C08  38173232.921     -173134.934        1786.215          12.000                                                            
J01  38029273.782      -15612.660         167.037          17.000    38029291.769      -10924.013         121.496          20.000
E24  28374467.865  -579693091.199       -2008.867          20.000    28374479.257 -3658141214.246       -1500.071          21.000
> 2021 04 12 05 37  4.0000010  0  7
G22  24491432.734     -266248.400        2718.428          28.000                                                            
G09  25216544.649  -692782853.294       -2210.539          22.000    25216554.842 -3507275025.863       -1650.767          18.000
G01  20748932.513     -173919.240        2791.044          17.000                                                            
G16  24534219.713          -0.435       -2274.733          13.000                                                            
C08  38172889.958     -174925.847        1794.423          12.000                                                            
J01  38029235.708      -15782.063         170.042          16.000    38029260.891      -11045.572         121.661          20.000
E24  28374850.999  -586762512.326       -2008.072          20.000    28374861.192 -3695854003.657       -1500.340          20.000
> 2021 04 12 05 37  5.0000010  0  7
G22  24490914.992     -268967.066        2718.662          28.000                                                            
G09  25216967.357  -699852071.377       -2211.859          24.000    25216974.552 -3544987664.968       -1650.162          17.000
G01  20748400.681     -176712.940        2793.254          16.000                                                            
G16  24534663.706    -7069154.962       -2275.197          16.000                                                            
C08  38172547.595     -176719.050        1793.544          10.000                                                            
J01  38029205.729      -15951.483         167.650          16.000    38029230.312      -11166.849         120.780          20.000
E24  28375233.834  -593831932.719       -2010.284          20.000    28375243.428 -3733566792.956       -1500.296          21.000
> 2021 04 12 05 37  6.0000010  0  7
G22  24490399.649     -271686.621        2720.207          25.000                                                            
G09  25217388.265  -706921288.813       -2211.407          23.000    25217394.861 -3582700304.659       -1649.015          16.000
G01  20747867.950     -179505.262        2790.627          15.000                                                            
G16  24535099.004   -14138309.341       -2275.039          16.000                                                            
C08  38172207.331     -178510.876        1790.641          10.000                                                            
J01  38029177.248      -16118.253         165.963          15.000    38029199.733      -11288.453         123.316          20.000
E24  28375617.869  -600901353.115       -2007.363          21.000    28375626.862 -3771279581.946       -1499.284          21.000
> 2021 04 12 05 37  7.0000010  0  7
G22  24489881.908     -274407.761        2721.852          26.000                                                            
G09  25217809.774  -713990508.178       -2207.786          23.000    25217815.170 -3620412945.876       -1647.572          16.000
G01  20747335.518     -182297.219        2790.139          16.000                                                            
G16  24535533.404   -21207466.387       -2270.058          16.000                                                            
C08  38171866.467     -180301.333        1789.644          11.000                                                            
J01  38029149.368      -16285.036         165.574          15.000    38029167.955      -11412.651         125.093          19.000
E24  28376001.303  -607970773.611       -2007.170          21.000    28376009.098 -3808992373.540       -1496.066          20.000
> 2021 04 12 05 37  8.0000010  0  7
G22  24489364.466     -277129.552        2721.201          28.000                                                            
G09  25218230.682  -721059730.170       -2207.009          24.000    25218235.479 -3658125587.489       -1648.624          16.000
G01  20746806.685     -185086.742        2788.191          15.000                                                            
G16  24535968.103   -28276623.704       -2273.866          15.000                                                            
C08  38171527.701     -182086.150        1783.821          11.000                                                            
J01  38029118.489      -16450.081         164.543          15.000    38029137.076      -11536.839         123.302          18.000
E24  28376383.538  -615040196.211       -2007.184          21.000    28376389.834 -3846705168.238       -1495.491          19.000
> 2021 04 12 05 37  9.0000010  0  7
G22  24488846.424     -279850.058        2719.678          27.000                                                            
G09  25218652.190  -728128950.097       -2210.324          23.000    25218655.788 -3695838227.200       -1650.024          16.000
G01  20746281.148     -187875.040        2790.476          16.000                                                            
G16  24536400.403   -35345779.004       -2273.550          16.000                                                            
C08  38171189.236     -183872.536        1785.807          10.000                                                            
J01  38029090.309      -16613.920         163.710          16.000    38029106.198      -11659.608         122.739          17.000
E24  28376764.874  -622109619.442       -2004.557          20.000    28376772.369 -3884417960.914       -1501.551          19.000
> 2021 04 12 05 37 10.0000010  0  7
G22  24488329.882     -282569.202        2718.384          28.000                                                            
G09  25219071.600  -735198167.548       -2212.994          25.000    25219076.097 -3733550866.713       -1651.005          16.000
G01  20745752.614     -190664.928        2789.512          16.000                                                            
G16  24536835.702   -42414935.579       -2272.969          15.000                                                            
C08  38170847.172     -185658.184        1787.497          12.000                                                            
J01  38029061.828      -16775.958         161.035          16.000    38029075.019      -11782.296         122.194          17.000
E24  28377145.611  -629179042.772       -2004.997          20.000    28377156.403 -3922130749.356       -1501.041          19.000
> 2021 04 12 05 37 11.0000010  0  7
G22  24487813.639     -285287.203        2717.432          28.000                                                            
G09  25219492.808  -742267384.722       -2212.288          23.000    25219497.605 -3771263505.073       -1651.776          17.000
G01  20745222.881     -193453.851        2789.046          17.000                                                            
G16  24537271.001   -49484092.440       -2273.556          16.000                                                            
C08  38170503.310     -187446.289        1786.408          11.000                                                            
J01  38029032.449      -16937.047         161.870          16.000    38029043.841      -11904.325         121.368          17.000
E24  28377526.347  -636248466.142       -2006.108          20.000    28377542.536 -3959843536.575       -1503.432          18.000
> 2021 04 12 05 37 12.0000010  0  7
G22  24487299.495     -288004.536        2717.168          27.000                                                            
G09  25219915.216  -749336601.685       -2210.776          22.000    25219918.814 -3808976142.810       -1651.469          17.000
G01  20744694.647     -196241.976        2785.025          16.000                                                            
G16  24537704.501   -56553248.116       -2273.415          16.000                                                            
C08  38170162.446     -189231.794        1783.196           9.000                                                            
J01  38029001.570      -17098.965         161.716          17.000    38029012.662      -12025.883         122.004          17.000
E24  28377907.683  -643317889.280       -2006.321          20.000    28377926.270 -3997556323.312       -1500.965          18.000
> 2021 04 12 05 37 13.0000010  0  7
G22  24486782.054     -290721.855        2716.994          27.000                                                            
G09  25220335.525  -756405819.674       -2210.783          24.000    25220339.722 -3846688780.860       -1651.639          17.000
G01  20744170.909     -199025.820        2782.544          16.000                                                            
G16  24538141.298   -63622404.969       -2272.468          16.000                                                            
C08  38169821.283     -191013.530        1782.118           9.000                                                            
J01  38028970.691      -17262.250         162.579          17.000    38028981.184      -12146.941         121.474          17.000
E24  28378292.617  -650387309.163       -2013.576          20.000    28378309.405 -4035269111.750       -1503.369          18.000
> 2021 04 12 05 37 14.0000010  0  7
G22  24486265.811     -293439.174        2717.383          26.000                                                            
G09  25220760.331  -763475038.683       -2209.374          23.000    25220761.530 -3884401419.608       -1650.136          16.000
G01  20743640.876     -201806.772        2780.849          17.000                                                            
G16  24538574.199   -70691563.976       -2268.579          16.000                                                            
C08  38169479.219     -192795.563        1781.458          11.000                                                            
J01  38028938.314      -17424.957         163.825          16.000    38028949.706      -12268.829         121.823          16.000
E24  28378676.651  -657456723.758       -2014.739          21.000    28378692.540 -4072981898.686       -1502.398          18.000
> 2021 04 12 05 37 15.0000010  0  7
G22  24485745.971     -296156.601        2717.473          27.000                                                            
G09  25221180.940  -770544258.221       -2211.136          22.000    25221182.739 -3922114058.563       -1651.049          16.000
G01  20743113.242     -204587.944        2780.187          16.000                                                            
G16  24539009.797   -77760723.134       -2270.778          16.000                                                            
C08  38169138.955     -194577.358        1784.524          12.000                                                            
J01  38028909.534      -17590.170         165.754          16.000    38028918.528      -12390.869         121.977          16.000
E24  28379060.985  -664526138.353       -2015.721          21.000    28379075.375 -4110694687.925       -1498.300          18.000
> 2021 04 12 05 37 16.0000010  0  7
G22  24485230.628     -298875.060        2720.133          26.000                                                            
G09  25221599.750  -777613476.712       -2210.607          23.000    25221603.347 -3959826697.745       -1649.687          16.000
G01  20742585.907     -207369.425        2783.014          16.000                                                            
G16  24539443.597   -84829881.165       -2269.459          15.000                                                            
C08  38168796.292     -196362.324        1786.190          14.000                                                            
J01  38028882.552      -17756.564         167.275          16.000    38028887.949      -12511.399         121.153          16.000
E24  28379443.820  -671595554.782       -2011.571          21.000    28379457.011 -4148407478.963       -1499.789          17.000
> 2021 04 12 05 37 17.0000010  0  7
G22  24484712.286     -301595.861        2721.334          25.000                                                            
G09  25222018.560  -784682696.050       -2208.541          23.000    25222023.357 -3997539338.747       -1647.801          16.000
G01  20742060.970     -210153.166        2784.329          15.000                                                            
G16  24539880.694   -91899041.307       -2268.947          16.000                                                            
C08  38168455.128     -198151.911        1793.487          14.000                                                            
J01  38028851.974      -17923.706         167.199          16.000    38028856.470      -12633.698         123.290          16.000
E24  28379825.456  -678664973.541       -2008.011          21.000    28379838.347 -4186120270.491       -1497.853          18.000
> 2021 04 12 05 37 18.0000010  0  7
G22  24484192.446     -304317.427        2721.164          26.000                                                            
G09  25222434.072  -791751917.336       -2207.648          22.000    25222443.965 -4035251980.926       -1647.612          17.000
G01  20741528.539     -212938.939        2786.084          16.000                                                            
G16  24540315.993   -98968201.884       -2268.163          17.000                                                            
C08  38168113.665     -199943.501        1787.073          14.000                                                            
J01  38028821.695      -18089.846         165.356          15.000    38028824.692      -12757.282         123.896          17.000
E24  28380206.192  -685734393.611       -2008.741          21.000    28380220.582 -4223833064.028       -1494.465          18.000
> 2021 04 12 05 37 19.0000010  0  7
G22  24483674.405     -307037.871        2720.423          27.000                                                            
G09  25222852.283  -798821138.159       -2208.568          22.000    25222864.274 -4072964622.737       -1648.290          17.000
G01  20740996.407     -215723.755        2782.447          15.000                                                            
G16  24540749.193  -106037362.747       -2269.398          16.000                                                            
C08  38167771.002     -201727.945        1780.557          13.000                                                            
J01  38028789.017      -18253.057         162.936          16.000    38028792.315      -12881.475         124.370          17.000
E24  28380587.528  -692803811.827       -2012.981          21.000    28380601.918 -4261545856.756       -1500.857          18.000
> 2021 04 12 05 37 20.0000010  0  7
G22  24483155.764     -309757.783        2719.145          27.000                                                            
G09  25223271.692  -805890359.637       -2207.762          22.000    25223284.583 -4110677264.044       -1648.197          17.000
G01  20740463.976     -218505.819        2781.358          15.000                                                            
G16  24541178.795  -113106521.507       -2270.178          17.000                                                            
C08  38167429.538     -203509.220        1781.217          12.000                                                            
J01  38028756.040      -18415.512         162.426          16.000    38028761.136      -13005.677         124.096          17.000
E24  28380971.262  -699873229.133       -2011.409          21.000    28380984.453 -4299258645.525       -1503.368          18.000
> 2021 04 12 05 37 21.0000010  0  7
G22  24482635.924     -312476.557        2718.312          26.000                                                            
G09  25223692.601  -812959580.665       -2209.165          25.000    25223705.192 -4148389904.779       -1649.734          18.000
G01  20739934.842     -221285.255        2777.591          14.000                                                            
G16  24541610.497  -120175680.039       -2269.450          16.000                                                            
C08  38167088.974     -205288.397        1775.658           9.000                                                            
J01  38028721.564      -18579.402         164.989          17.000    38028729.658      -13128.877         122.265          17.000
E24  28381355.596  -706942646.362       -2011.507          22.000    28381368.787 -4336971429.115       -1506.688          19.000
> 2021 04 12 05 37 22.0000010  0  7
G22  24482120.281     -315195.158        2718.123          26.000                                                            
G09  25224114.109  -820028801.236       -2208.705          25.000    25224125.801 -4186102544.511       -1650.139          18.000
G01  20739407.807     -224064.645        2780.733          13.000                                                            
G16  24542047.294  -127244839.679       -2269.299          16.000                                                            
C08  38166749.309     -207062.634        1773.869           9.000                                                            
J01  38028687.687      -18744.379         165.828          17.000    38028698.780      -13251.015         121.728          18.000
E24  28381737.832  -714012062.619       -2011.228          21.000    28381752.222 -4374684213.070       -1503.987          19.000
> 2021 04 12 05 37 23.0000010  0  7
G22  24481604.338     -317912.802        2717.541          26.000                                                            
G09  25224535.318  -827098021.206       -2210.239          25.000    25224546.710 -4223815184.079       -1649.777          18.000
G01  20738881.071     -226843.218        2776.561          10.000                                                            
G16  24542482.293  -134313999.046       -2271.184          15.000                                                            
C08  38166409.644     -208832.698        1767.106          11.000                                                            
J01  38028654.410      -18910.100         164.388          17.000    38028667.301      -13372.585         121.410          18.000
E24  28382120.667  -721081479.551       -2012.076          21.000    28382135.357 -4412396998.394       -1504.355          19.000
> 2021 04 12 05 37 24.0000010  0  7
G22  24481088.995     -320630.592        2718.177          25.000                                                            
G09  25224958.924  -834167240.324       -2209.612          24.000    25224966.719 -4261527824.098       -1649.087          18.000
G01  20738348.940     -229615.890        2769.197          10.000                                                            
G16  24542914.594  -141383155.830       -2274.057          16.000                                                            
C08  38166072.977     -210599.951        1766.758          12.000                                                            
J01  38028619.634      -19075.677         165.923          17.000    38028636.423      -13493.931         121.670          19.000
E24  28382502.003  -728150897.509       -2009.169          21.000    28382517.292 -4450109784.215       -1502.843          19.000
> 2021 04 12 05 37 25.0000010  0  7
G22  24480572.752     -323348.525        2717.476          26.000                                                            
G09  25225379.533  -841236460.286       -2209.589          25.000    25225387.328 -4299240464.386       -1649.441          19.000
G01  20737824.303     -232387.029        2771.785           9.000                                                            
G16  24543345.096  -148452313.433       -2268.406          16.000                                                            
C08  38165735.111     -212363.443        1760.273          12.000                                                            
J01  38028588.156      -19243.085         169.640          17.000    38028605.544      -13615.512         121.879          19.000
E24  28382884.238  -735220317.731       -2006.816          21.000    28382900.127 -4487822570.794       -1503.063          19.000
> 2021 04 12 05 37 26.0000010  0  7
G22  24480056.210     -326066.467        2718.346          28.000                                                            
G09  25225798.043  -848305680.542       -2208.249          21.000    25225806.737 -4336953105.154       -1648.206          19.000
G01  20737299.366     -235155.857        2767.473          10.000                                                            
G16  24543780.394  -155521474.076       -2271.376          16.000                                                            
C08  38165397.245     -214125.483        1763.172          12.000                                                            
J01  38028553.680      -19411.634         168.054          16.000    38028574.366      -13737.905         123.359          19.000
E24  28383265.274  -742289741.101       -2003.985          20.000    28383282.362 -4525535358.710       -1501.813          19.000
> 2021 04 12 05 37 27.0000010  0  7
G22  24479536.070     -328786.454        2720.907          28.000                                                            
G09  25226216.853  -855374903.370       -2205.441          23.000    25226226.147 -4374665747.638       -1646.501          18.000
G01  20736771.732     -237926.547        2772.051          12.000                                                            
G16  24544210.597  -162590630.776       -2271.897          16.000                                                            
C08  38165058.480     -215891.760        1767.951          12.000                                                            
J01  38028520.103      -19580.264         169.193          16.000    38028541.688      -13862.410         125.569          18.000
E24  28383646.311  -749359167.379       -2001.758          20.000    28383664.298 -4563248147.859       -1500.206          19.000
> 2021 04 12 05 37 28.0000010  0  7
G22  24479015.630     -331508.370        2722.312          28.000                                                            
G09  25226636.263  -862444126.948       -2205.905          22.000    25226645.856 -4412378391.020       -1645.920          18.000
G01  20736244.996     -240697.602        2771.106          13.000                                                            
G16  24544641.698  -169659788.886       -2269.476          15.000                                                            
C08  38164719.415     -217656.171        1762.897           9.000                                                            
J01  38028487.726      -19748.784         167.140          15.000    38028509.311      -13988.150         125.563          19.000
E24  28384027.047  -756428592.608       -2006.674          20.000    28384045.634 -4600960936.685       -1500.915          18.000
> 2021 04 12 05 37 29.0000010  0  7
G22  24478496.090     -334230.290        2721.850          29.000                                                            
G09  25227056.572  -869513351.136       -2205.359          21.000    25227065.866 -4450091034.100       -1646.803          18.000
G01  20735720.060     -243467.951        2770.519          15.000                                                            
G16  24545074.598  -176728947.707       -2271.654          14.000                                                            
C08  38164380.349     -219420.867        1765.196          10.000                                                            
J01  38028455.948      -19916.423         169.249          15.000    38028477.533      -14113.620         125.037          19.000
E24  28384408.383  -763498014.288       -2007.610          20.000    28384427.270 -4638673726.681       -1499.688          18.000
> 2021 04 12 05 37 30.0000010  0  7
G22  24477978.648     -336951.440        2720.603          28.000                                                            
G09  25227475.982  -876582575.092       -2205.858          21.000    25227485.575 -4487803676.687       -1647.809          19.000
G01  20735191.226     -246240.263        2772.533          16.000                                                            
G16  24545506.300  -183798102.794       -2277.135          13.000                                                            
C08  38164039.485     -221185.309        1764.222          11.000                                                            
J01  38028421.771      -20086.257         169.845          15.000    38028445.755      -14237.639         122.900          19.000
E24  28384792.117  -770567433.297       -2013.472          20.000    28384808.606 -4676386518.294       -1496.809          19.000
> 2021 04 12 05 37 31.0000010  0  7
G22  24477460.906     -339671.504        2718.156          29.000                                                            
G09  25227894.792  -883651797.501       -2207.825          22.000    25227905.584 -4525516318.400       -1648.240          19.000
G01  20734663.591     -249016.968        2780.891          16.000                                                            
G16  24545940.699  -190867252.922       -2280.564          14.000                                                            
C08  38163701.619     -222945.075        1758.606          10.000                                                            
J01  38028390.893      -20254.010         167.246          16.000    38028414.576      -14360.465         122.690          19.000
E24  28385177.650  -777636847.755       -2018.127          21.000    28385190.541 -4714099308.241       -1501.293          19.000
> 2021 04 12 05 37 32.0000010  0  7
G22  24476945.563     -342389.399        2717.565          28.000                                                            
G09  25228313.002  -890721017.324       -2210.200          23.000    25228325.594 -4563228959.235       -1648.877          19.000
G01  20734135.657     -251797.874        2777.461          16.000                                                            
G16  24546378.696  -197936401.609       -2280.423          13.000                                                            
C08  38163362.254     -224703.094        1757.953           9.000                                                            
J01  38028363.312      -20419.529         164.073          16.000    38028383.998      -14482.848         122.125          19.000
E24  28385562.584  -784706258.817       -2015.888          20.000    28385573.376 -4751812098.641       -1498.850          19.000
> 2021 04 12 05 37 33.0000010  0  7
G22  24476429.920     -345106.994        2717.221          28.000                                                            
G09  25228735.110  -897790237.087       -2209.311          23.000    25228745.603 -4600941599.618       -1649.521          19.000
G01  20733609.221     -254575.822        2781.703          15.000                                                            
G16  24546812.196  -205005551.423       -2278.568          14.000                                                            
C08  38163021.390     -226462.667        1763.410          11.000                                                            
J01  38028336.031      -20583.344         165.055          16.000    38028353.119      -14604.706         122.306          19.000
E24  28385947.517  -791775673.326       -2013.154          20.000    28385956.211 -4789524888.534       -1499.476          19.000
> 2021 04 12 05 37 34.0000010  0  7
G22  24475914.277     -347824.483        2717.581          27.000                                                            
G09  25229157.518  -904859457.038       -2208.763          21.000    25229166.511 -4638654239.823       -1649.583          20.000
G01  20733081.886     -257356.325        2779.028          15.000                                                            
G16  24547246.895  -212074699.009       -2283.905          14.000                                                            
C08  38162682.025     -228226.612        1768.885          10.000                                                            
J01  38028306.052      -20747.609         164.657          15.000    38028322.840      -14726.982         122.202          19.000
E24  28386330.952  -798845089.320       -2014.569          20.000    28386338.147 -4827237678.505       -1498.689          19.000
> 2021 04 12 05 37 35.0000010  0  7
G22  24475396.835     -350542.291        2717.838          28.000                                                            
G09  25229581.424  -911928678.153       -2207.690          23.000    25229586.521 -4676366880.225       -1649.054          19.000
G01  20732555.451     -260134.553        2777.620          14.000                                                            
G16  24547680.694  -219143845.339       -2280.579          13.000                                                            
C08  38162339.962     -229997.529        1772.004           9.000                                                            
J01  38028277.271      -20912.274         164.727          15.000    38028291.961      -14849.652         122.440          19.000
E24  28386715.886  -805914503.848       -2016.544          20.000    28386722.481 -4864950465.331       -1507.263          19.000
> 2021 04 12 05 37 36.0000010  0  7
G22  24474875.796     -353261.116        2719.646          26.000                                                            
G09  25230005.331  -918997897.963       -2208.019          18.000    25230006.530 -4714079521.329       -1647.461          19.000
G01  20732027.216     -262911.111        2774.892          14.000                                                            
G16  24548113.295  -226212994.674       -2278.597          11.000                                                            
C08  38161998.198     -231770.922        1774.388           9.000                                                            
J01  38028248.491      -21076.531         165.320          15.000    38028261.083      -14972.317         124.086          19.000
E24  28387099.920  -812983918.289       -2011.758          20.000    28387108.614 -4902663249.542       -1509.099          19.000
> 2021 04 12 05 37 37.0000010  0  7
G22  24474356.855     -355982.001        2721.458          28.000                                                            
G09  25230422.042  -926067118.759       -2207.916          20.000    25230425.940 -4751792163.756       -1647.023          19.000
G01  20731502.879     -265684.695        2772.823          14.000                                                            
G16  24548543.497  -233282146.757       -2276.134          10.000                                                            
C08  38161656.735     -233547.237        1780.648          10.000                                                            
J01  38028214.015      -21243.266         167.527          14.000    38028229.904      -15096.512         124.398          20.000
E24  28387481.256  -820053337.862       -2008.046          21.000    28387493.847 -4940376031.653       -1506.030          19.000
> 2021 04 12 05 37 38.0000010  0  7
G22  24473837.315     -358703.670        2721.538          29.000                                                            
G09  25230839.653  -933136341.046       -2204.714          20.000    25230845.649 -4789504806.767       -1646.387          20.000
G01  20730979.142     -268456.787        2771.227          15.000                                                            
G16  24548979.095  -240351296.432       -2281.408           9.000                                                            
C08  38161313.173     -235329.105        1781.815           9.000                                                            
J01  38028184.636      -21409.799         164.958          15.000    38028197.826      -15220.339         123.633          20.000
E24  28387861.692  -827122757.206       -2010.055          21.000    28387879.380 -4978088812.836       -1509.697          18.000
> 2021 04 12 05 37 39.0000010  0  7
G22  24473319.873     -361424.406        2720.144          27.000                                                            
G09  25231256.065  -940205566.284       -2203.580          20.000    25231265.358 -4827217449.371       -1647.654          20.000
G01  20730457.503     -271223.685        2761.998          15.000                                                            
G16  24549413.794  -247420445.966       -2279.444           9.000                                                            
C08  38160967.212     -237112.924        1788.317           9.000                                                            
J01  38028151.658      -21574.208         165.365          14.000    38028166.348      -15343.810         123.582          20.000
E24  28388244.827  -834192175.736       -2012.353          21.000    28388262.815 -5015801596.960       -1503.006          19.000
> 2021 04 12 05 37 40.0000010  0  7
G22  24472801.232     -364144.130        2719.114          27.000                                                            
G09  25231671.277  -947274793.613       -2200.727          19.000    25231684.468 -4864930091.318       -1647.942          19.000
G01  20729933.765     -273983.328        2754.697          14.000                                                            
G16  24549846.095  -254489595.781       -2279.690           9.000                                                            
C08  38160621.551     -238902.407        1793.501           9.000                                                            
J01  38028116.283      -21739.242         165.317          13.000    38028134.570      -15467.286         123.094          20.000
E24  28388626.163  -841261593.332       -2013.246          21.000    28388647.149 -5053514382.710       -1505.669          19.000
> 2021 04 12 05 37 41.0000010  0  6
G22  24472282.591     -366862.857        2718.245          27.000                                                            
G09  25232086.790  -954344020.632       -2202.061          19.000    25232103.878 -4902642732.980       -1648.239          19.000
G01  20729407.930     -276737.698        2755.475          13.000                                                            
C08  38160276.790     -240697.766        1800.059          10.000                                                            
J01  38028086.903      -21904.321         163.848          14.000    38028103.392      -15590.357         123.091          20.000
E24  28389009.897  -848331008.373       -2018.526          20.000    28389031.482 -5091227165.154       -1507.967          19.000
> 2021 04 12 05 37 42.0000010  0  6
G22  24471767.848     -369580.971        2718.220          24.000                                                            
G09  25232510.696  -961413246.891       -2203.946          19.000    25232523.887 -4940355374.436       -1648.256          18.000
G01  20728885.691     -279491.886        2753.132          12.000                                                            
C08  38159929.630     -242498.908        1803.436           9.000                                                            
J01  38028061.121      -22066.642         161.431          14.000    38028071.914      -15713.512         123.040          20.000
E24  28389395.431  -855400416.882       -2023.565          20.000    28389414.617 -5128939946.224       -1507.896          19.000
> 2021 04 12 05 37 43.0000010  0  6
G22  24471252.504     -372299.222        2718.440          24.000                                                            
G09  25232932.205  -968482470.706       -2205.799          18.000    25232944.196 -4978068016.169       -1646.863          18.000
G01  20728359.555     -282245.213        2754.794          11.000                                                            
C08  38159583.670     -244304.460        1808.833           9.000                                                            
J01  38028032.041      -22228.591         160.784          14.000    38028039.836      -15836.453         121.847          20.000
E24  28389777.966  -862469826.042       -2019.536          19.000    28389798.951 -5166652728.614       -1505.831          19.000
> 2021 04 12 05 37 44.0000010  0  6
G22  24470734.463     -375017.943        2718.759          25.000                                                            
G09  25233355.212  -975551691.952       -2210.603          18.000    25233364.205 -5015780658.790       -1647.117          18.000
G01  20727831.921     -285002.274        2758.959          11.000                                                            
C08  38159235.611     -246115.875        1816.305           9.000                                                            
J01  38028003.561      -22389.050         160.641          15.000    38028009.557      -15955.677         119.092          20.000
E24  28390161.400  -869539236.216       -2016.731          19.000    28390181.486 -5204365512.261       -1505.215          19.000
> 2021 04 12 05 37 45.0000010  0  6
G22  24470214.923     -377736.884        2718.950          27.000                                                            
G09  25233773.422  -982620909.844       -2210.826          18.000    25233783.915 -5053493300.875       -1647.146          17.000
G01  20727305.785     -287764.603        2765.819          12.000                                                            
C08  38158885.453     -247933.164        1818.245           9.000                                                            
J01  38027969.085      -22550.174         160.373          15.000    38027978.378      -16073.197         117.528          20.000
E24  28390545.434  -876608648.988       -2016.091          19.000    28390564.022 -5242078298.069       -1503.726          19.000
> 2021 04 12 05 37 46.0000010  0  6
G22  24469698.680     -380456.634        2720.499          26.000                                                            
G09  25234195.830  -989690130.038       -2208.257          18.000    25234204.524 -5091205943.874       -1646.044          17.000
G01  20726779.949     -290530.750        2766.493          13.000                                                            
C08  38158535.596     -249751.082        1817.263           9.000                                                            
J01  38027941.804      -22709.797         160.012          15.000    38027947.200      -16192.823         122.336          20.000
E24  28390928.569  -883678062.715       -2015.192          19.000    28390946.257 -5279791082.440       -1506.774          19.000
> 2021 04 12 05 37 47.0000010  0  6
G22  24469179.440     -383178.847        2723.222          22.000                                                            
G09  25234614.940  -996759352.176       -2204.087          18.000    25234623.334 -5128918588.017       -1644.808          17.000
G01  20726254.712     -293297.897        2766.930          14.000                                                            
C08  38158187.237     -251566.288        1813.445           9.000                                                            
J01  38027916.022      -22870.221         161.618          15.000    38027915.422      -16316.768         125.043          20.000
E24  28391313.503  -890747477.401       -2013.669          19.000    28391331.190 -5317503866.135       -1504.867          18.000
> 2021 04 12 05 37 48.0000010  0  6
G22  24468662.897     -385901.073        2721.241          16.000                                                            
G09  25235032.850 -1003828580.877       -2197.593          18.000    25235042.144 -5166631235.306       -1639.056          16.000
G01  20725723.480     -296068.279        2773.440          14.000                                                            
C08  38157838.878     -253378.610        1812.717           9.000                                                            
J01  38027887.241      -23032.454         160.965          14.000    38027882.145      -16446.217         132.936          19.000
E24  28391696.937  -897816895.088       -2010.688          19.000    28391713.126 -5355216651.486       -1503.169          18.000
> 2021 04 12 05 37 49.0000010  0  6
G22  24468146.055     -388621.390        2717.959          17.000                                                            
G09  25235447.763 -1010897812.043       -2197.152          18.000    25235460.055 -5204343887.584       -1636.872          14.000
G01  20725195.246     -298843.226        2776.471          15.000                                                            
C08  38157490.519     -255192.653        1813.086           9.000                                                            
J01  38027855.763      -23191.623         160.052          13.000    38027847.069      -16578.388         132.208          18.000
E24  28392080.372  -904886314.830       -2007.688          18.000    28392094.762 -5392929440.718       -1500.123          17.000
> 2021 04 12 05 37 50.0000010  0  6
G22  24467630.112     -391339.195        2718.041          17.000                                                            
G09  25235865.674 -1017967042.334       -2199.751          18.000    25235877.066 -5242056538.946       -1637.416          14.000
G01  20724665.213     -301624.705        2785.068          14.000                                                            
C08  38157143.060     -257002.876        1809.264           9.000                                                            
J01  38027824.585      -23351.276         158.246          12.000    38027813.493      -16709.546         130.372          17.000
E24  28392462.307  -911955733.749       -2011.859          17.000    28392476.098 -5430642230.690       -1499.441          16.000
> 2021 04 12 05 37 51.0000010  0  6
G22  24467109.972     -394057.665        2719.328          17.000                                                            
G09  25236285.083 -1025036271.933       -2199.881          19.000    25236293.777 -5279769189.114       -1636.835          13.000
G01  20724131.582     -304415.531        2793.149          11.000                                                            
C08  38156792.902     -258815.520        1813.940           9.000                                                            
J01  38027793.706      -23509.356         159.751          10.000    38027781.415      -16839.172         131.307          17.000
E24  28392845.442  -919025150.567       -2013.491          16.000    28392858.033 -5468355020.327       -1501.650          15.000
> 2021 04 12 05 37 52.0000010  0  6
G22  24466587.434     -396779.030        2723.477          17.000                                                            
G09  25236706.592 -1032105500.415       -2203.123          19.000                                                            
G01  20723593.755     -307215.226        2803.789           9.000                                                            
C08  38156445.442     -260631.623        1817.677           9.000                                                            
J01  38027760.729      -23666.124         157.064           9.000    38027748.438      -16969.942         129.598          15.000
E24  28393227.378  -926094565.070       -2015.709          16.000    28393241.468 -5506067805.401       -1506.590          15.000
> 2021 04 12 05 37 53.0000010  0  5
G22  24466072.091     -399499.918        2720.202          17.000                                                            
G09  25237128.100 -1039174725.862       -2203.602          19.000                                                            
G01  20723057.126     -310019.832        2806.856           9.000                                                            
J01  38027729.850      -23824.137         161.205          10.000    38027715.161      -17099.513         129.690          14.000
E24  28393609.014  -933163977.879       -2017.530          16.000    28393625.202 -5543780587.903       -1507.504          13.000
> 2021 04 12 05 37 54.0000010  0  5
G22  24465558.846     -402219.777        2720.131          17.000                                                            
G09  25237543.612 -1046243951.856       -2203.246          20.000                                                            
G01  20722521.997     -312825.318        2807.075           9.000                                                            
J01  38027699.571      -23987.023         163.263           9.000                                                            
E24  28393991.249  -940233388.922       -2018.515          16.000    28394008.337 -5581493369.405       -1507.494          12.000
> 2021 04 12 05 37 55.0000010  0  4
G22  24465041.404     -404940.307        2719.873          17.000                                                            
G09  25237963.921 -1053313177.390       -2204.877          20.000                                                            
J01  38027671.990      -24151.403         165.053          10.000                                                            
E24  28394373.784  -947302797.881       -2020.116          15.000    28394392.971 -5619206151.317       -1506.802          12.000
> 2021 04 12 05 37 56.0000010  0  4
G22  24464527.860     -407659.702        2719.900          17.000                                                            
G09  25238384.230 -1060382402.893       -2203.448          20.000                                                            
J01  38027638.114      -24316.272         164.056          11.000                                                            
E24  28394758.118  -954372207.348       -2018.865          15.000    28394777.605 -5656918934.305       -1506.593          12.000
> 2021 04 12 05 37 57.0000010  0  4
G22  24464009.219     -410379.388        2720.179          18.000                                                            
G09  25238804.239 -1067451628.089       -2203.593          20.000                                                            
J01  38027603.938      -24482.413         167.706          10.000    38027588.948           0.000         122.382          12.000
E24  28395141.253  -961441619.335       -2016.026          15.000    28395161.639 -5656918934.305       -1504.686          11.000
> 2021 04 12 05 37 58.0000010  0  4
G22  24463494.175     -413101.031        2723.265          20.000                                                            
G09  25239220.052 -1074520855.745       -2201.485          20.000                                                            
J01  38027571.560      -24652.099         171.146          10.000    38027558.069          -0.277         124.172          12.000
E24  28395524.987  -968511033.434       -2014.598          15.000    28395545.673           0.000       -1502.882          12.000
> 2021 04 12 05 37 59.0000010  0  5
G22  24462976.434     -415824.356        2722.665          26.000                                                            
G09  25239635.864 -1081590085.418       -2198.756          20.000                                                            
G01  20719943.182           0.000        2763.779          17.000                                                            
J01  38027536.185      -24825.730         175.180          11.000    38027527.491        -124.787         124.738          14.000
E24  28395908.422  -975580447.867       -2015.173          16.000    28395929.107           0.000       -1506.116          11.000
> 2021 04 12 05 38  0.0000010  0  5
G22  24462458.093     -418546.446        2722.002          26.000                                                            
G09  25240051.676 -1088659317.288       -2197.710          20.000                                                            
G01  20719418.245           0.007        2764.722          21.000                                                            
J01  38027503.807      -25004.047         179.803          12.000    38027496.312        -249.638         124.999          15.000
E24  28396293.655  -982649861.422       -2015.890          18.000    28396311.343           0.000       -1498.712          11.000
> 2021 04 12 05 38  1.0000010  0  6
G22  24461939.152     -421268.374        2721.422          26.000                                                            
G09  25240468.088 -1095728547.667       -2199.269          19.000                                                            
G01  20718888.812       -2764.334        2763.290          20.000                                                            
G16  24558885.737           0.000       -2271.129          19.000                                                            
J01  38027467.832      -25185.565         182.580          11.000    38027466.333        -374.654         124.562          16.000
E24  28396677.389  -989719274.059       -2016.808          19.000    28396693.578           0.000       -1501.242          10.000
> 2021 04 12 05 38  2.0000010  0  6
G22  24461421.410     -423988.898        2720.274          27.000                                                            
G09  25240886.598 -1102797776.388       -2200.905          18.000                                                            
G01  20718362.076       -5527.441        2763.689          22.000                                                            
G16  24559340.522           0.028       -2274.053          17.000                                                            
J01  38027428.559      -25369.281         183.680          12.000    38027434.855        -499.059         124.246          17.000
E24  28397061.723  -996788686.293       -2017.217          20.000    28397077.013           0.000       -1506.202           9.000
> 2021 04 12 05 38  3.0000010  0  6
G22  24460903.069     -426709.417        2720.866          26.000                                                            
G09  25241306.007 -1109867004.521       -2202.712          17.000                                                            
G01  20717835.341       -8290.389        2762.528          21.000                                                            
G16  24559769.226    -7069155.307       -2272.656          18.000                                                            
J01  38027390.485      -25553.668         185.878          11.000    38027404.276        -623.677         124.946          17.000
E24  28397446.957 -1003858098.203       -2017.326          22.000    28397460.747           0.000       -1505.906           9.000
> 2021 04 12 05 38  4.0000010  0  6
G22  24460385.927     -429430.864        2721.464          26.000                                                            
G09  25241730.514 -1116936230.833       -2203.132          17.000                                                            
G01  20717307.706      -11051.060        2758.493          20.000                                                            
G16  24560200.027   -14138309.701       -2276.509          18.000                                                            
J01  38027351.512      -25738.565         184.015          10.000    38027373.397        -748.579         125.071          18.000
E24  28397830.691 -1010927510.227       -2016.699          22.000    28397846.280           0.000       -1503.354           9.000
> 2021 04 12 05 38  5.0000010  0  6
G22  24459868.186     -432152.284        2721.464          25.000                                                            
G09  25242154.120 -1124005457.070       -2202.425          17.000                                                            
G01  20716782.770      -13808.647        2755.656          20.000                                                            
G16  24560633.827   -21207458.569       -2282.365          19.000                                                            
J01  38027313.439      -25921.541         183.076          10.000    38027341.919        -874.286         125.853          18.000
E24  28398215.924 -1017996922.810       -2016.793          22.000                                                            
> 2021 04 12 05 38  6.0000010  0  6
G22  24459348.046     -434874.597        2723.361          25.000                                                            
G09  25242577.727 -1131074683.712       -2202.553          18.000                                                            
G01  20716256.634      -16565.414        2756.933          20.000                                                            
G16  24561067.926   -28276605.476       -2280.669          18.000                                                            
J01  38027276.864      -26105.360         182.576           9.000    38027310.141       -1000.808         127.181          18.000
E24  28398601.457 -1025066335.635       -2015.699          22.000                                                            
> 2021 04 12 05 38  7.0000010  0  6
G22  24458829.705     -437599.013        2725.160          25.000                                                            
G09  25242993.239 -1138143913.458       -2197.707          19.000                                                            
G01  20715730.798      -19322.736        2758.683          19.000                                                            
G16  24561505.024   -35345756.214       -2277.962          18.000                                                            
J01  38027238.790      -26286.028         179.861           9.000    38027277.763       -1128.374         128.026          19.000
E24  28398984.592 -1032135750.045       -2014.046          22.000                                                            
> 2021 04 12 05 38  8.0000010  0  6
G22  24458309.565     -440324.386        2725.336          25.000                                                            
G09  25243412.649 -1145213144.921       -2195.043          20.000                                                            
G01  20715202.564      -22081.047        2757.779          20.000                                                            
G16  24561935.826   -42414907.814       -2276.847          18.000                                                            
J01  38027207.612      -26464.164         178.824           9.000    38027244.786       -1256.437         128.118          19.000
E24  28399367.427 -1039205164.935       -2015.043          22.000                                                            
> 2021 04 12 05 38  9.0000010  0  6
G22  24457791.523     -443049.118        2724.096          26.000                                                            
G09  25243830.860 -1152282379.137       -2193.942          20.000                                                            
G01  20714674.329      -24837.170        2754.421          18.000                                                            
G16  24562369.625   -49484058.931       -2278.517          17.000                                                            
J01  38027173.136      -26642.750         175.351          12.000    38027212.109       -1384.514         127.617          19.000
E24  28399750.262 -1046274578.071       -2016.083          22.000                                                            
> 2021 04 12 05 38 10.0000010  0  6
G22  24457273.782     -445772.444        2722.890          25.000                                                            
G09  25244245.473 -1159351613.039       -2196.815          20.000                                                            
G01  20714146.095      -27590.277        2751.414          19.000                                                            
G16  24562802.825   -56553209.586       -2278.722          16.000                                                            
J01  38027138.660      -26817.173         172.022          10.000    38027179.731       -1512.003         127.291          19.000
E24  28400132.198 -1053343992.492       -2012.789          22.000                                                            
> 2021 04 12 05 38 11.0000010  0  6
G22  24456753.942     -448494.912        2722.198          26.000                                                            
G09  25244664.882 -1166420845.674       -2197.343          19.000                                                            
G01  20713624.156      -30341.293        2750.977          18.000                                                            
G16  24563235.426   -63622360.957       -2276.973          17.000                                                            
J01  38027101.186      -26990.388         173.353          11.000    38027147.354       -1639.320         127.244          19.000
E24  28400515.632 -1060413407.191       -2015.233          22.000                                                            
> 2021 04 12 05 38 12.0000010  0  6
G22  24456234.101     -451217.122        2721.824          24.000                                                            
G09  25245082.493 -1173490077.029       -2199.379          18.000                                                            
G01  20713101.019      -33092.766        2751.476          18.000                                                            
G16  24563671.624   -70691513.444       -2276.977          17.000                                                            
J01  38027067.009      -27163.735         174.344          11.000    38027115.276       -1766.011         126.492          19.000
E24  28400899.666 -1067482820.239       -2016.291          22.000                                                            
> 2021 04 12 05 38 13.0000010  0  6
G22  24455714.861     -453939.002        2721.766          27.000                                                            
G09  25245503.102 -1180559306.577       -2198.933          18.000                                                            
G01  20712575.183      -35841.642        2746.800          18.000                                                            
G16  24564102.726   -77760665.352       -2278.044          16.000                                                            
J01  38027031.934      -27339.660         176.803          10.000    38027083.198       -1892.080         125.498          19.000
E24  28401282.801 -1074552232.799       -2017.792          22.000                                                            
> 2021 04 12 05 38 14.0000010  0  6
G22  24455196.520     -456660.844        2721.893          27.000                                                            
G09  25245922.811 -1187628534.517       -2202.132          18.000                                                            
G01  20712050.546      -38587.018        2744.821          17.000                                                            
G16  24564535.026   -84829817.578       -2276.681          15.000                                                            
J01  38026999.256      -27515.948         175.720          10.000    38027051.420       -2017.709         125.939          19.000
E24  28401668.934 -1081621645.157       -2015.405          22.000    28401697.114           0.000       -1504.325          19.000
> 2021 04 12 05 38 15.0000010  0  6
G22  24454679.977     -459382.630        2721.532          27.000                                                            
G09  25246345.219 -1194697760.730       -2202.886          17.000                                                            
G01  20711529.806      -41330.917        2743.418          17.000                                                            
G16  24564968.226   -91898967.478       -2282.027          14.000                                                            
J01  38026966.279      -27690.482         174.362          12.000    38027019.342       -2143.730         125.872          19.000
E24  28402053.567 -1088691058.318       -2016.576          21.000    28402064.360           0.216       -1503.046          16.000
> 2021 04 12 05 38 16.0000010  0  6
G22  24454162.536     -462104.787        2723.235          23.000                                                            
G09  25246766.128 -1201766988.275       -2199.874          17.000                                                            
G01  20711006.968      -44074.411        2743.455          16.000                                                            
G16  24565399.628   -98968117.901       -2277.501          12.000                                                            
J01  38026931.803      -27861.831         170.050          13.000    38026987.564       -2269.769         126.483          19.000
E24  28402437.302 -1095760470.448       -2015.167          21.000    28402452.891           0.216       -1501.202          11.000
> 2021 04 12 05 38 17.0000010  0  6
G22  24453644.794     -464829.499        2725.261          25.000                                                            
G09  25247180.141 -1208836218.594       -2197.546          17.000                                                            
G01  20710480.533      -46823.399        2752.448          15.000                                                            
G16  24565833.727  -106037268.405       -2277.777          10.000                                                            
J01  38026898.226      -28033.070         171.760          13.000    38026954.887       -2396.905         127.790          19.000
E24  28402824.933 -1102829885.393       -2014.123          21.000    28402834.227           0.000       -1501.159          13.000
> 2021 04 12 05 38 18.0000010  0  6
G22  24453121.656     -467554.734        2724.902          24.000                                                            
G09  25247596.553 -1215905451.657       -2195.237          17.000                                                            
G01  20709962.491      -49576.838        2754.986          14.000                                                            
G16  24566267.527  -113106415.728       -2284.354           9.000                                                            
J01  38026865.249      -28204.462         172.605          13.000    38026922.210       -2524.937         127.916          19.000
E24  28403210.167 -1109899299.595       -2016.119          21.000    28403215.863           0.275       -1504.647          14.000
> 2021 04 12 05 38 19.0000010  0  6
G22  24452602.416     -470279.207        2722.953          24.000                                                            
G09  25248012.065 -1222974685.868       -2195.586          18.000                                                            
G01  20709440.553      -52332.374        2755.779          14.000                                                            
G16  24566703.125  -120175557.134       -2289.985           9.000                                                            
J01  38026831.372      -28377.886         173.861          11.000    38026889.232       -2652.936         127.626          19.000
E24  28403597.499 -1116968712.239       -2016.657          21.000    28403598.998   -37712784.083       -1504.515          13.000
> 2021 04 12 05 38 20.0000010  0  6
G22  24452084.074     -473000.951        2719.446          24.000                                                            
G09  25248427.577 -1230043918.432       -2198.918          19.000    25248453.959           0.000       -1642.496          20.000
G01  20708915.616      -55088.471        2754.394          14.000                                                            
G16  24567139.923  -127244694.980       -2294.152           9.000                                                            
J01  38026800.494      -28549.209         168.583          10.000    38026856.855       -2780.061         126.461          19.000
E24  28403980.633 -1124038125.031       -2018.352          21.000    28403982.132   -75425566.759       -1509.131          13.000
> 2021 04 12 05 38 21.0000010  0  5
G22  24451566.633     -475720.899        2719.865          26.000                                                            
G09  25248843.389 -1237113148.973       -2199.016          20.000    25248864.375          -0.018       -1637.397          15.000
G01  20708391.879      -57842.947        2753.185          14.000                                                            
J01  38026768.416      -28715.933         166.504          11.000    38026825.377       -2905.718         125.065          20.000
E24  28404365.867 -1131107535.385       -2020.191          21.000    28404367.066  -113138346.184       -1510.096          13.000
> 2021 04 12 05 38 22.0000010  0  5
G22  24451049.790     -478441.351        2720.757          26.000                                                            
G09  25249260.701 -1244182378.686       -2199.302          20.000    25249281.986   -37712649.028       -1641.440          16.000
G01  20707868.741      -60596.826        2752.281          14.000                                                            
J01  38026740.236      -28879.899         162.081          11.000    38026793.299       -3030.951         125.187          20.000
E24  28404748.702 -1138176944.764       -2017.773          20.000    28404752.599  -150851122.890       -1513.536          14.000
> 2021 04 12 05 38 23.0000010  0  5
G22  24450532.049     -481162.635        2721.664          27.000                                                            
G09  25249681.309 -1251251607.441       -2200.979          20.000    25249699.597   -75425295.982       -1643.064          14.000
G01  20707345.903      -63347.653        2748.289          14.000                                                            
J01  38026711.455      -29044.032         165.252          11.000    38026761.521       -3156.461         126.204          20.000
E24  28405134.535 -1145246352.809       -2025.675          20.000    28405138.132  -188563900.021       -1510.591          14.000
> 2021 04 12 05 38 24.0000010  0  5
G22  24450015.806     -483884.804        2722.243          28.000                                                            
G09  25250100.119 -1258320833.760       -2201.191          20.000    25250118.107  -113137943.057       -1641.229          12.000
G01  20706824.863      -66094.475        2743.992          14.000                                                            
J01  38026682.376      -29210.776         166.968          12.000    38026729.143       -3282.227         125.442          20.000
E24  28405521.567 -1152315756.060       -2025.326          20.000    28405522.466  -226276680.056       -1508.859          15.000
> 2021 04 12 05 38 25.0000010  0  5
G22  24449498.664     -486606.247        2720.866          27.000                                                            
G09  25250520.428 -1265390061.437       -2203.108          20.000    25250536.317  -150850591.433       -1642.016          12.000
G01  20706305.623      -68835.524        2736.529          12.000                                                            
J01  38026652.396      -29376.805         165.314          11.000    38026697.365       -3407.516         125.265          20.000
E24  28405909.498 -1159385161.440       -2022.262          20.000    28405907.699  -263989459.750       -1510.359          15.000
> 2021 04 12 05 38 26.0000010  0  5
G22  24448979.724     -489327.809        2721.820          27.000                                                            
G09  25250938.939 -1272459288.392       -2200.428          19.000    25250955.727  -188563238.224       -1642.649          12.000
G01  20705784.883      -71571.909        2737.322          11.000                                                            
J01  38026620.019      -29542.163         167.468           9.000    38026665.587       -3532.997         125.960          20.000
E24  28406293.532 -1166454569.755       -2019.482          20.000    28406293.232  -301702239.016       -1510.355          16.000
> 2021 04 12 05 38 27.0000010  0  5
G22  24448462.881     -492051.039        2724.324          27.000                                                            
G09  25251359.847 -1279528516.876       -2201.534          18.000    25251374.237  -226275885.735       -1641.945          12.000
G01  20705265.043      -74310.219        2740.744          10.000                                                            
J01  38026589.140      -29709.708         165.349           9.000    38026634.409       -3657.844         125.410          20.000
E24  28406676.367 -1173523981.833       -2016.232          20.000    28406677.267  -339415019.839       -1507.158          16.000
> 2021 04 12 05 38 28.0000010  0  5
G22  24447944.540     -494775.459        2724.406          26.000                                                            
G09  25251781.655 -1286597744.720       -2202.693          18.000    25251793.047  -263988533.932       -1641.048          13.000
G01  20704746.103      -77053.235        2746.016          10.000                                                            
J01  38026558.262      -29872.569         160.369           9.000    38026599.933       -3783.109         125.614          20.000
E24  28407059.202 -1180593392.975       -2017.221          20.000    28407061.301  -377127801.815       -1507.764          16.000
> 2021 04 12 05 38 29.0000010  0  6
G22  24447427.398     -497499.801        2724.848          27.000                                                            
G09  25252201.365 -1293666972.122       -2201.342          18.000    25252210.958  -301701182.900       -1638.855          15.000
G01  20704226.562      -79802.768        2753.793          10.000                                                            
G27  23510818.499           0.000       -2630.210          20.000                                                            
E24  28407442.037 -1187662804.104       -2019.242          20.000    28407445.635  -414840583.642       -1507.450          15.000
J01  38026566.356       -3908.824         127.181          19.000                                                            
> 2021 04 12 05 38 30.0000010  0  6
G22  24446911.755     -500224.394        2724.441          27.000                                                            
G09  25252619.275 -1300736200.696       -2197.807          18.000    25252628.569  -339413831.816       -1639.623          14.000
G01  20703706.122      -82559.069        2757.056          10.000                                                            
G27  23511321.251           0.310       -2624.814           9.000                                                            
E24  28407827.270 -1194732211.669       -2021.477          21.000    28407830.268  -452553363.448       -1511.314          15.000
J01  38026533.379       -4035.099         127.589          19.000                                                            
> 2021 04 12 05 38 31.0000010  0  6
G22  24446393.414     -502949.063        2723.768          26.000                                                            
G09  25253033.589 -1307805432.740       -2196.125          17.000    25253046.779  -377126482.007       -1639.622          14.000
G01  20703179.087      -85318.072        2759.733          12.000                                                            
G27  23511806.915    -7068804.443       -2625.365           9.000                                                            
E24  28408211.005 -1201801618.687       -2022.400          20.000    28408215.202  -490266141.292       -1511.430          15.000
J01  38026501.901       -4160.798         124.826          19.000                                                            
> 2021 04 12 05 38 32.0000010  0  6
G22  24445875.373     -505671.673        2722.011          26.000                                                            
G09  25253457.495 -1314874667.276       -2195.696          16.000    25253464.990  -414839131.408       -1640.353          14.000
G01  20702659.547      -88075.753        2755.959          11.000                                                            
G27  23512302.771   -14137605.455       -2629.472           9.000                                                            
E24  28408596.238 -1208871024.491       -2023.327          20.000    28408600.135  -527978918.833       -1512.268          13.000
J01  38026470.722       -4283.926         121.349          19.000                                                            
> 2021 04 12 05 38 33.0000010  0  5
G22  24445358.530     -508393.361        2721.435          25.000                                                            
G09  25253877.504 -1321943900.926       -2194.464          16.000    25253884.100  -452551780.702       -1640.431          15.000
G01  20702133.711      -90834.693        2760.832          11.000                                                            
E24  28408978.473 -1215940431.594       -2022.815          19.000    28408984.769  -565691697.657       -1509.555          13.000
J01  38026440.143       -4406.280         121.802          19.000                                                            
> 2021 04 12 05 38 34.0000010  0  5
G22  24444840.189     -511114.717        2721.381          26.000                                                            
G09  25254299.912 -1329013137.164       -2192.312          15.000    25254302.910  -490264429.460       -1640.862          16.000
G01  20701609.074      -93597.331        2762.759           9.000                                                            
E24  28409361.308 -1223009839.574       -2021.170          18.000    28409369.703  -565691697.657       -1508.602          10.000
J01  38026408.365       -4527.435         123.288          19.000                                                            
> 2021 04 12 05 38 35.0000010  0  6
G22  24444323.347     -513836.441        2721.503          28.000                                                            
G09  25254717.223 -1336082373.659       -2192.422          14.000    25254721.120  -527977078.023       -1640.299          16.000
G01  20701082.039      -96358.836        2760.995           9.000                                                            
G16  24573705.977           0.000       -2277.511          18.000                                                            
E24  28409743.544 -1230079248.344       -2019.564          18.000    28409754.336  -565691697.657       -1508.500           9.000
J01  38026376.587       -4652.162         125.254          18.000                                                            
> 2021 04 12 05 38 36.0000010  0  6
G22  24443804.107     -516558.520        2723.128          25.000                                                            
G09  25255135.134 -1343151608.109       -2197.124          15.000    25255139.031  -565689727.604       -1639.933          17.000
G01  20700556.803      -99117.964        2756.103           9.000                                                            
G16  24574029.453           0.037       -2282.237          13.000                                                            
E24  28410126.978 -1237148659.179       -2018.342          19.000    28410138.970  -565691697.657       -1505.725          10.000
J01  38026343.310       -4780.448         131.171          18.000                                                            
> 2021 04 12 05 38 37.0000010  0  6
G22  24443286.965     -519282.470        2724.541          25.000                                                            
G09  25255551.545 -1350220840.360       -2196.746          16.000    25255557.541  -603402378.084       -1638.925          18.000
G01  20700031.566     -101873.687        2753.991          11.000                                                            
G16  24574474.345    -7069147.854       -2278.653          16.000                                                            
E24  28410511.312 -1244218068.874       -2022.372          20.000    28410521.805  -565691697.657       -1503.023          10.000
J01  38026310.933       -4910.430         129.324          19.000                                                            
> 2021 04 12 05 38 38.0000010  0  7
G22  24442767.724     -522007.294        2724.255          25.000                                                            
G09  25255970.356 -1357290071.148       -2199.616          16.000    25255975.152  -641115029.360       -1638.864          17.000
G01  20699507.229     -104630.743        2758.591          11.000                                                            
G16  24574908.145   -14138299.110       -2274.032          15.000                                                            
G21  20404191.572           0.000         182.476          16.000                                                            
E24  28410896.246 -1251287477.069       -2020.760          20.000    28410903.441  -565691697.657       -1494.170           9.000
J01  38026277.656       -5040.394         128.452          19.000                                                            
> 2021 04 12 05 38 39.0000010  0  7
G22  24442246.685     -524731.205        2723.314          24.000                                                            
G09  25256386.467 -1364359301.794       -2197.798          16.000    25256393.063  -678827680.687       -1638.478          17.000
G01  20698982.293     -107386.892        2754.690          12.000                                                            
G16  24575341.345   -21207455.909       -2271.330          15.000                                                            
G21  20404159.794           0.195         182.544          11.000                                                            
E24  28411278.481 -1258356886.909       -2020.174          19.000    28411284.777  -565691697.657       -1500.547          10.000
J01  38026244.379       -5169.445         130.791          18.000                                                            
> 2021 04 12 05 38 40.0000010  0  7
G22  24441728.943     -527454.339        2722.781          24.000                                                            
G09  25256802.280 -1371428534.207       -2197.981          17.000    25256811.573  -716540331.167       -1639.679          17.000
G01  20698458.256     -110134.957        2744.739          13.000                                                            
G16  24575774.545   -28276614.229       -2270.591          14.000                                                            
G21  20404117.224        -182.034         181.586           9.000                                                            
E24  28411664.014 -1265426295.042       -2024.194          19.000    28411667.912  -565691697.657       -1506.170           9.000
J01  38026211.701       -5300.071         129.541          18.000                                                            
> 2021 04 12 05 38 41.0000010  0  7
G22  24441211.501     -530176.689        2722.064          25.000                                                            
G09  25257217.792 -1378497765.385       -2198.398          17.000    25257230.083  -754252980.743       -1640.769          17.000
G01  20697936.916     -112874.224        2740.732          13.000                                                            
G16  24576208.645   -35345771.297       -2273.404          15.000                                                            
G21  20404085.146        -358.434         174.929           9.000                                                            
J01  38026199.110           0.000         162.319          18.000    38026181.422       -5428.550         128.030          19.000
E24  28412054.344 -1272495700.411       -2022.369          19.000    28412053.145  -565691697.657       -1508.175           9.000
> 2021 04 12 05 38 42.0000010  0  7
G22  24440692.561     -532898.451        2721.358          26.000                                                            
G09  25257638.101 -1385566996.407       -2198.185          17.000    25257648.894  -791965629.380       -1641.378          17.000
G01  20697418.575     -115613.898        2738.390          13.000                                                            
G16  24576643.044   -42414925.009       -2279.136          14.000                                                            
G21  20404052.768        -526.512         165.887           9.000                                                            
J01  38026134.355           0.188         162.939          10.000    38026150.844       -5554.473         124.399          18.000
E24  28412440.477 -1279565108.149       -2019.955          18.000    28412439.278  -565691697.657       -1512.053           9.000
> 2021 04 12 05 38 43.0000010  0  6
G22  24440174.819     -535619.549        2720.904          26.000                                                            
G09  25258054.213 -1392636227.322       -2198.068          17.000    25258068.603  -829678276.868       -1644.225          16.000
G01  20696900.534     -118349.761        2734.031          14.000                                                            
G16  24577079.842   -49484074.586       -2277.644          14.000                                                            
J01  38026093.283        -166.616         168.784          14.000    38026119.365       -5677.981         123.362          18.000
E24  28412825.410 -1286634516.382       -2021.959          18.000                                                            
> 2021 04 12 05 38 44.0000010  0  6
G22  24439657.977     -538340.454        2720.797          28.000                                                            
G09  25258474.522 -1399705458.538       -2198.631          17.000    25258486.813  -867390923.484       -1641.801          16.000
G01  20696380.694     -121082.110        2729.288          15.000                                                            
G16  24577519.038   -56553226.072       -2279.720          14.000                                                            
J01  38026055.809        -337.940         174.103          14.000    38026088.187       -5802.626         127.003          18.000
E24  28413210.644 -1293703923.577       -2019.608          18.000                                                            
> 2021 04 12 05 38 45.0000010  0  6
G22  24439141.135     -541061.333        2720.660          27.000                                                            
G09  25258893.932 -1406774689.851       -2197.350          15.000    25258904.724  -905103571.517       -1641.680          16.000
G01  20695866.250     -123811.165        2727.882          16.000                                                            
G16  24577954.936   -63622372.721       -2284.788          15.000                                                            
J01  38026023.432        -513.042         177.213          13.000    38026055.510       -5931.491         127.835          18.000
E24  28413595.277 -1300773331.995       -2020.752          18.000                                                            
> 2021 04 12 05 38 46.0000010  0  6
G22  24438623.993     -543782.531        2722.570          27.000                                                            
G09  25259310.343 -1413843918.459       -2201.443          14.000    25259322.935  -942816220.394       -1639.687          16.000
G01  20695352.705     -126537.582        2724.782          16.000                                                            
G16  24578392.333   -70691516.245       -2287.549          15.000                                                            
J01  38025992.253        -691.946         181.694          14.000    38026022.233       -6059.424         128.821          18.000
E24  28413980.511 -1307842738.802       -2023.354          17.000                                                            
> 2021 04 12 05 38 47.0000010  0  6
G22  24438106.551     -546506.918        2725.783          27.000                                                            
G09  25259728.254 -1420913147.829       -2199.917          13.000    25259741.145  -980528871.477       -1637.887          16.000
G01  20694834.964     -129260.936        2724.086          17.000                                                            
G16  24578830.030   -77760659.136       -2284.294          15.000                                                            
J01  38025958.677        -874.980         184.073          13.000    38025988.656       -6188.018         128.871          18.000
E24  28414366.044 -1314912145.078       -2021.942          16.000                                                            
> 2021 04 12 05 38 48.0000010  0  6
G22  24437587.310     -549233.114        2725.990          27.000                                                            
G09  25260144.966 -1427982381.066       -2196.042          13.000    25260158.756 -1018241523.607       -1636.599          17.000
G01  20694315.723     -131984.002        2721.832          16.000                                                            
G16  24579269.526   -84829805.665       -2281.895          16.000                                                            
J01  38025925.699       -1060.345         185.509          13.000    38025954.779       -6316.938         129.322          19.000
E24  28414748.279 -1321981552.740       -2021.087          16.000                                                            
> 2021 04 12 05 38 49.0000010  0  6
G22  24437068.370     -551958.268        2724.988          26.000                                                            
G09  25260562.876 -1435051614.369       -2196.776          13.000    25260576.067 -1055954176.532       -1637.092          17.000
G01  20693799.481     -134704.289        2718.962          16.000                                                            
G16  24579711.720   -91898952.821       -2283.091          17.000                                                            
J01  38025893.622       -1244.828         184.895          12.000    38025921.502       -6445.667         129.021          19.000
E24  28415132.313 -1329050960.026       -2023.186          16.000                                                            
> 2021 04 12 05 38 50.0000010  0  6
G22  24436552.127     -554682.726        2723.818          27.000                                                            
G09  25260973.292 -1442120846.145       -2196.358          14.000    25260993.978 -1093666828.051       -1638.208          18.000
G01  20693282.039     -137420.064        2711.378          15.000                                                            
G16  24580153.314   -98968099.248       -2282.535          17.000                                                            
J01  38025860.644       -1430.788         187.114          12.000    38025889.125       -6574.714         130.260          19.000
E24  28415517.547 -1336120365.686       -2023.945          17.000                                                            
> 2021 04 12 05 38 51.0000010  0  6
G22  24436032.886     -557405.867        2722.650          25.000                                                            
G09  25261391.203 -1449190080.202       -2192.323          15.000    25261412.488 -1131379478.989       -1638.981          18.000
G01  20692764.597     -140131.467        2711.253          14.000                                                            
G16  24580591.011  -106037246.869       -2280.208          17.000                                                            
J01  38025829.766       -1618.089         188.749          11.000    38025856.447       -6704.238         130.679          20.000
E24  28415902.480 -1343189770.780       -2024.326          17.000                                                            
> 2021 04 12 05 38 52.0000010  0  6
G22  24435515.744     -560128.051        2723.257          25.000                                                            
G09  25261810.013 -1456259315.984       -2197.111          14.000    25261830.099 -1169092129.315       -1639.525          18.000
G01  20692250.753     -142844.138        2714.017          12.000                                                            
G16  24581031.406  -113106392.607       -2285.712          17.000                                                            
J01  38025794.390       -1806.017         184.462          12.000    38025823.770       -6834.433         127.192          20.000
E24  28416287.114 -1350259175.607       -2024.337          17.000                                                            
> 2021 04 12 05 38 53.0000010  0  6
G22  24434996.204     -562851.780        2723.769          24.000                                                            
G09  25262231.221 -1463328547.694       -2196.743          14.000    25262247.410 -1206804779.471       -1639.287          18.000
G01  20691736.609     -145560.604        2719.467          12.000                                                            
G16  24581473.000  -120175537.752       -2284.385          17.000                                                            
J01  38025759.914       -1988.811         179.744          12.000    38025791.392       -6962.057         125.880          19.000
E24  28416669.949 -1357328580.016       -2025.536          18.000                                                            
> 2021 04 12 05 38 54.0000010  0  6
G22  24434476.964     -565575.496        2722.782          24.000                                                            
G09  25262648.832 -1470397780.235       -2196.279          13.000    25262665.321 -1244517430.244       -1638.297          18.000
G01  20691220.366     -148280.796        2720.337          11.000                                                            
G16  24581911.297  -127244682.192       -2286.063          17.000                                                            
J01  38025729.335       -2166.847         177.856          12.000    38025759.914       -7085.123         123.209          19.000
E24  28417055.782 -1364397983.542       -2025.450          18.000                                                            
> 2021 04 12 05 38 55.0000010  0  6
G22  24433958.023     -568298.337        2722.259          28.000                                                            
G09  25263064.344 -1477467011.768       -2200.263          12.000    25263082.932 -1282230081.041       -1641.018          17.000
G01  20690701.725     -151000.684        2719.945          11.000                                                            
G16  24582352.591  -134313826.301       -2284.560          17.000                                                            
J01  38025701.155       -2342.044         173.043          13.000    38025728.136       -7209.282         122.761          18.000
E24  28417439.516 -1371467388.499       -2024.885          17.000                                                            
> 2021 04 12 05 38 56.0000010  0  6
G22  24433437.883     -571020.022        2721.641          25.000                                                            
G09  25263480.157 -1484536240.312       -2199.642           9.000    25263501.142 -1319942730.376       -1638.863          16.000
G01  20690179.787     -153722.333        2722.228          13.000                                                            
G16  24582787.590  -141382971.930       -2283.656          18.000                                                            
J01  38025671.475       -2514.986         170.686          14.000    38025694.859       -7333.969         128.015          18.000
E24  28417823.850 -1378536791.836       -2026.070          16.000                                                            
> 2021 04 12 05 38 57.0000010  0  6
G22  24432919.242     -573743.556        2724.386          26.000                                                            
G09  25263900.466 -1491605470.901       -2197.937          13.000    25263918.153 -1357655382.361       -1636.809          16.000
G01  20689661.146     -156448.848        2728.556          15.000                                                            
G16  24583227.386  -148452118.218       -2281.767          18.000                                                            
J01  38025642.695       -2685.097         168.152          15.000    38025659.784       -7463.695         126.137          18.000
E24  28418208.184 -1385606196.567       -2023.448          15.000                                                            
> 2021 04 12 05 38 58.0000010  0  6
G22  24432402.999     -576468.630        2724.832          24.000                                                            
G09  25264318.976 -1498674704.793       -2192.515          15.000    25264334.565 -1395368035.614       -1635.369          16.000
G01  20689141.006     -159178.744        2730.573          15.000                                                            
G16  24583667.481  -155521261.636       -2285.989          17.000                                                            
J01  38025613.316       -2853.175         168.392          15.000    38025627.406       -7590.681         128.195          19.000
E24  28418593.417 -1392675602.201       -2023.069          14.000                                                            
> 2021 04 12 05 38 59.0000010  0  6
G22  24431883.759     -579194.402        2725.985          25.000                                                            
G09  25264737.786 -1505743941.830       -2192.535          16.000    25264750.677 -1433080689.410       -1636.524          15.000
G01  20688618.767     -161910.286        2733.211          16.000                                                            
G16  24584104.579  -162590404.358       -2286.109          18.000                                                            
J01  38025585.435       -3018.453         164.680          15.000    38025594.129       -7720.267         131.422          20.000
E24  28418980.749 -1399745007.968       -2024.625          13.000                                                            
> 2021 04 12 05 39  0.0000010  0  6
G22  24431365.418     -581919.499        2723.571          27.000                                                            
G09  25265154.198 -1512813180.890       -2187.906          17.000    25265167.389 -1470793342.071       -1637.879          16.000
G01  20688097.728     -164643.382        2732.754          16.000                                                            
G16  24584539.278  -169659546.717       -2284.448          18.000                                                            
J01  38025558.454       -3183.575         163.343          15.000    38025560.252       -7851.347         130.488          20.000
E24  28419365.683 -1406814413.407       -2022.495          13.000                                                            
> 2021 04 12 05 39  1.0000010  0  6
G22  24430848.575     -584642.249        2721.486          26.000                                                            
G09  25265567.012 -1519882422.908       -2186.480          18.000    25265584.700 -1508505993.621       -1638.323          16.000
G01  20687575.789     -167375.473        2731.083          17.000                                                            
G16  24584977.274  -176728691.597       -2283.443          18.000                                                            
J01  38025528.474       -3347.511         163.473          13.000    38025526.676       -7981.950         129.968          20.000
E24  28419751.515 -1413883819.184       -2024.696          14.000                                                            
> 2021 04 12 05 39  2.0000010  0  6
G22  24430329.935     -587363.823        2721.453          25.000                                                            
G09  25265981.325 -1526951666.123       -2186.180          17.000    25266001.711 -1546218644.083       -1639.271          16.000
G01  20687057.748     -170104.367        2726.984          17.000                                                            
G16  24585411.074  -183797837.736       -2283.030          18.000                                                            
J01  38025496.996       -3511.788         163.670          12.000    38025495.197       -8109.066         124.528          19.000
E24  28420138.547 -1420953223.720       -2025.296          14.000                                                            
> 2021 04 12 05 39  3.0000010  0  6
G22  24429812.793     -590085.548        2721.757          24.000                                                            
G09  25266397.137 -1534020908.221       -2187.897          18.000    25266418.722 -1583931294.524       -1638.838          17.000
G01  20686537.008     -172829.268        2724.154          18.000                                                            
G16  24585842.475  -190866984.113       -2282.281          18.000                                                            
J01  38025468.216       -3675.778         163.751          13.000    38025464.619       -8233.486         123.968          19.000
E24  28420523.781 -1428022626.687       -2027.134          14.000                                                            
> 2021 04 12 05 39  4.0000010  0  6
G22  24429294.152     -592807.909        2722.221          24.000                                                            
G09  25266816.247 -1541090146.734       -2192.251          17.000    25266836.033 -1621643945.867       -1638.187          17.000
G01  20686018.068     -175552.267        2721.192          18.000                                                            
G16  24586275.975  -197936131.326       -2281.675          19.000                                                            
J01  38025438.836       -3840.078         164.162          13.000    38025433.740       -8357.957         124.766          19.000
E24  28420908.115 -1435092026.596       -2028.878          13.000                                                            
> 2021 04 12 05 39  5.0000010  0  6
G22  24428775.810     -595530.344        2722.494          23.000                                                            
G09  25267232.959 -1548159382.477       -2193.505          17.000    25267253.344 -1659356597.655       -1635.179          17.000
G01  20685500.326     -178272.386        2719.259          19.000                                                            
G16  24586709.475  -205005279.158       -2281.667          19.000                                                            
J01  38025407.958       -4006.494         166.480          13.000    38025400.763       -8483.310         126.850          19.000
E24  28421293.948 -1442161425.264       -2031.261          13.000                                                            
> 2021 04 12 05 39  6.0000010  0  6
G22  24428257.469     -598253.175        2723.243          25.000                                                            
G09  25267652.968 -1555228619.119       -2193.829          18.000    25267670.056 -1697069251.203       -1636.227          16.000
G01  20684982.585     -180992.093        2720.965          20.000                                                            
G16  24587142.376  -212074427.638       -2279.387          19.000                                                            
J01  38025375.880       -4174.337         170.160          14.000    38025368.385       -8610.207         126.423          19.000
E24  28421678.581 -1449230824.818       -2027.936          12.000                                                            
> 2021 04 12 05 39  7.0000010  0  7
G22  24427740.627     -600978.100        2725.685          25.000                                                            
G09  25268071.178 -1562297855.908       -2192.410          17.000    25268086.468 -1734781905.217       -1635.428          16.000
G01  20684463.644     -183713.156        2721.117          20.000                                                            
G16  24587574.676  -219143576.990       -2280.623          19.000                                                            
C06  39565111.144           0.000       -1489.449          18.000                                                            
J01  38025345.001       -4347.660         175.874          13.000    38025334.808       -8738.147         127.691          19.000
E24  28422062.615 -1456300225.917       -2024.227          11.000                                                            
> 2021 04 12 05 39  8.0000010  0  7
G22  24427222.286     -603703.895        2725.412          26.000                                                            
G09  25268488.789 -1569367094.239       -2191.099          17.000    25268503.479 -1772494559.648       -1632.579          15.000
G01  20683941.405     -186434.048        2721.197          20.000                                                            
G16  24588008.776  -226212725.086       -2280.524          19.000                                                            
C06  39565401.942           0.084       -1481.169          14.000                                                            
J01  38025315.022       -4525.038         176.763          12.000    38025301.532       -8866.994         129.897          19.000
E24  28422447.249 -1463369630.464       -2024.765           9.000                                                            
> 2021 04 12 05 39  9.0000010  0  7
G22  24426704.544     -606428.716        2724.189          26.000                                                            
G09  25268908.499 -1576436329.617       -2195.057          18.000    25268918.392 -1810207218.902       -1628.278          13.000
G01  20683423.664     -189154.763        2719.172          20.000                                                            
G16  24588441.976  -233281873.091       -2281.596          19.000                                                            
C06  39565677.451    -7069949.703       -1477.685          12.000                                                            
J01  38025283.244       -4703.112         179.877          10.000    38025268.554       -8997.070         130.007          19.000
E24  28422833.382 -1470439036.190       -2023.924           9.000                                                            
> 2021 04 12 05 39 10.0000010  0  7
G22  24426187.702     -609152.643        2723.511          27.000                                                            
G09  25269327.609 -1583505565.037       -2193.972          19.000    25269333.904 -1847919879.769       -1629.871          13.000
G01  20682904.723     -191876.066        2721.673          20.000                                                            
G16  24588872.178  -240351019.564       -2284.003          19.000                                                            
C06  39565963.753   -14139904.961       -1472.078          14.000                                                            
J01  38025250.567       -4881.697         175.554          11.000    38025234.678       -9126.375         127.288          19.000
E24  28423218.615 -1477508439.425       -2026.533           9.000                                                            
> 2021 04 12 05 39 11.0000010  0  7
G22  24425668.462     -611875.866        2722.758          26.000                                                            
G09  25269744.020 -1590574801.043       -2193.399          19.000    25269750.316 -1885632537.217       -1633.719          12.000
G01  20682387.281     -194598.274        2721.686          19.000                                                            
G16  24589304.779  -247420163.687       -2285.397          20.000                                                            
C06  39566243.759   -21209859.099       -1475.793          13.000                                                            
J01  38025220.288       -5056.546         174.447          11.000    38025202.000       -9253.943         129.184          18.000
E24  28423606.247 -1484577840.500       -2030.323          12.000                                                            
> 2021 04 12 05 39 12.0000010  0  7
G22  24425148.322     -614598.483        2722.305          26.000                                                            
G09  25270158.933 -1597644037.275       -2192.012          19.000                                                            
G01  20681870.439     -197320.066        2721.967          19.000                                                            
G16  24589738.578  -254489307.183       -2286.332          20.000                                                            
C06  39566525.265   -28279810.261       -1479.331          14.000                                                            
J01  38025185.512       -5230.550         173.274          12.000    38025168.723       -9381.884         125.264          18.000
E24  28423991.480 -1491647239.409       -2030.888          12.000                                                            
> 2021 04 12 05 39 13.0000010  0  7
G22  24424628.182     -617321.043        2722.287          27.000                                                            
G09  25270576.844 -1604713274.826       -2191.713          20.000                                                            
G01  20681352.697     -200041.629        2719.702          18.000                                                            
G16  24590172.977  -261558448.858       -2288.351          20.000                                                            
C06  39566808.269   -35349762.448       -1477.079          13.000                                                            
J01  38025149.237       -5404.517         173.698          13.000    38025136.945       -9506.469         122.261          18.000
E24  28424378.212 -1498716637.702       -2029.809          13.000                                                            
> 2021 04 12 05 39 14.0000010  0  7
G22  24424109.841     -620043.184        2721.966          27.000                                                            
G09  25270993.555 -1611782512.482       -2188.960          19.000                                                            
G01  20680834.656     -202760.867        2719.718          18.000                                                            
G16  24590607.377  -268627588.154       -2291.334          20.000                                                            
C06  39567087.975   -42419719.411       -1474.766          12.000                                                            
J01  38025114.761       -5577.448         172.588          14.000    38025105.167       -9627.609         121.077          18.000
E24  28424762.846 -1505786037.138       -2029.477          15.000                                                            
> 2021 04 12 05 39 15.0000010  0  7
G22  24423591.499     -622765.713        2722.530          27.000                                                            
G09  25271409.068 -1618851753.122       -2188.698          19.000    25271421.959           0.000       -1642.569          12.000
G01  20680317.814     -205480.351        2719.225          18.000                                                            
G16  24591042.076  -275696723.666       -2294.416          20.000                                                            
C06  39567371.279   -49489673.160       -1474.201          10.000                                                            
J01  38025078.186       -5748.452         169.238          14.000    38025072.190       -9752.204         126.116          19.000
E24  28425148.979 -1512855438.254       -2025.687          15.000                                                            
> 2021 04 12 05 39 16.0000010  0  8
G22  24423074.357     -625488.769        2724.344          27.000                                                            
G09  25271826.678 -1625920993.786       -2187.098          19.000                                                            
G01  20679801.871     -208199.424        2720.256          18.000                                                            
G16  24591477.374  -282765860.099       -2291.265          20.000                                                            
R14  19430459.673           0.000        1704.458          21.000                                                            
C06  39567653.983   -56559628.517       -1476.928           9.000                                                            
J01  38025044.909       -5914.788         163.356          15.000    38025039.213       -9879.370         130.770          19.000
E24  28425536.011 -1519924844.339       -2023.746          14.000                                                            
> 2021 04 12 05 39 17.0000010  0  8
G22  24422556.916     -628214.196        2726.491          28.000                                                            
G09  25272243.690 -1632990236.901       -2184.266          18.000                                                            
G01  20679286.528     -210921.284        2724.005          18.000                                                            
G16  24591910.874  -289834998.763       -2288.708          20.000                                                            
R14  19430343.053           0.000        1746.609           9.000                                                            
C06  39567936.687   -63629581.144       -1475.192           9.000                                                            
J01  38025008.035       -6075.512         156.998          15.000    38025005.037      -10009.653         131.981          19.000
E24  28425922.743 -1526994250.613       -2022.613          15.000                                                            
> 2021 04 12 05 39 18.0000010  0  8
G22  24422039.774     -630941.085        2726.648          27.000                                                            
G09  25272657.703 -1640059481.048       -2185.908          17.000    25272675.990           0.000       -1633.825          12.000
G01  20678767.587     -213644.559        2722.256          18.000                                                            
G16  24592345.573  -296904140.225       -2286.172          20.000                                                            
R14  19430015.680           0.000        1763.953          15.000                                                            
C06  39568217.893   -70699534.492       -1477.107           9.000                                                            
J01  38024974.158       -6233.497         159.008          15.000    38024971.760      -10142.064         132.108          19.000
E24  28426309.475 -1534063655.945       -2024.560          15.000                                                            
> 2021 04 12 05 39 19.0000010  0  8
G22  24421520.833     -633667.188        2725.431          23.000                                                            
G09  25273073.515 -1647128723.005       -2190.317          17.000    25273093.002          -0.709       -1635.869          12.000
G01  20678248.047     -216364.417        2718.407          17.000                                                            
G16  24592776.975  -303973284.638       -2285.172          19.000                                                            
R14  19429686.208           0.000        1766.299          15.000                                                            
C06  39568500.297   -77769486.097       -1476.560          10.000                                                            
J01  38024943.879       -6393.419         161.834          14.000    38024938.183      -10274.471         133.018          19.000
E24  28426696.807 -1541133059.245       -2027.235          14.000                                                            
> 2021 04 12 05 39 20.0000010  0  8
G22  24421000.993     -636390.967        2722.723          25.000                                                            
G09  25273489.028 -1654197962.236       -2189.892          17.000                                                            
G01  20677730.605     -219082.730        2718.369          17.000                                                            
G16  24593211.074  -311042426.848       -2288.693          19.000                                                            
R14  19429355.537           0.000        1757.400          14.000                                                            
C06  39568783.002   -84839437.712       -1477.578          12.000                                                            
J01  38024912.101       -6556.396         163.859          14.000    38024903.107      -10407.867         133.144          19.000
E24  28427082.041 -1548202460.003       -2029.714          14.000                                                            
> 2021 04 12 05 39 21.0000010  0  8
G22  24420482.352     -639114.393        2723.624          27.000                                                            
G09  25273905.739 -1661267200.458       -2194.935          17.000    25273927.624           0.000       -1637.783          12.000
G01  20677213.763     -221800.012        2714.199          17.000                                                            
G16  24593640.077  -318111566.555       -2290.416          19.000                                                            
R14  19429027.564           0.000        1750.411          13.000                                                            
C06  39569065.706   -91909387.024       -1482.140          12.000                                                            
J01  38024874.027       -6724.074         169.218          13.000    38024869.531      -10537.646         125.985          19.000
E24  28427469.972 -1555271858.851       -2031.499          14.000                                                            
> 2021 04 12 05 39 22.0000010  0  8
G22  24419964.310     -641837.683        2722.802          27.000                                                            
G09  25274324.549 -1668336434.021       -2195.973          17.000    25274344.336           0.381       -1637.019          14.000
G01  20676698.120     -224513.240        2712.335          16.000                                                            
G16  24594077.474  -325180704.902       -2290.439          19.000                                                            
R14  19428702.889           0.000        1737.551          13.000                                                            
C06  39569349.609   -98979332.659       -1487.823          13.000                                                            
J01  38024840.151       -6893.015         168.650          13.000    38024838.952      -10664.735         128.993          19.000
E24  28427857.604 -1562341257.501       -2029.856          13.000                                                            
> 2021 04 12 05 39 23.0000010  0  8
G22  24419446.569     -644560.080        2721.445          26.000                                                            
G09  25274742.460 -1675405668.393       -2193.732          17.000    25274761.347   -37712653.285       -1636.521          14.000
G01  20676180.378     -227226.054        2712.174          16.000                                                            
G16  24594509.176  -332249843.064       -2291.233          19.000                                                            
R14  19428383.610           0.000        1719.549          12.000                                                            
C06  39569632.613  -106049270.097       -1497.160          11.000                                                            
J01  38024805.375       -7060.666         168.058          14.000    38024806.274      -10793.712         127.886          19.000
E24  28428243.437 -1569410656.589       -2030.884          14.000                                                            
> 2021 04 12 05 39 24.0000010  0  9
G22  24418927.928     -647281.609        2720.629          26.000                                                            
G09  25275161.870 -1682474903.463       -2194.457          17.000    25275177.759   -75425306.254       -1637.096          14.000
G01  20675661.737     -229937.672        2711.342          17.000                                                            
G16  24594940.577  -339318980.061       -2292.049          19.000                                                            
G27  23538557.995           0.000       -2650.406          18.000                                                            
R14  19428067.029           0.000        1699.617          12.000                                                            
C06  39569919.815  -113119198.818       -1504.890          11.000                                                            
J01  38024770.299       -7231.337         173.492          14.000    38024773.897      -10920.390         126.930          19.000
E24  28428628.670 -1576480053.922       -2032.387          12.000                                                            
> 2021 04 12 05 39 25.0000010  0  9
G22  24418408.687     -650003.041        2721.894          26.000                                                            
G09  25275580.080 -1689544139.603       -2192.487          18.000    25275597.168  -113137955.592       -1640.400          14.000
G01  20675143.396     -232649.149        2710.755          17.000                                                            
G16  24595377.674  -346388119.029       -2288.506          19.000                                                            
G27  23539047.556          -0.632       -2645.726          12.000                                                            
R14  19427749.549           0.000        1682.427          10.000                                                            
C06  39570206.416  -120189121.894       -1507.593           9.000                                                            
J01  38024736.123       -7406.371         176.136          13.000    38024741.519      -11049.279         128.330          19.000
E24  28429013.004 -1583549450.765       -2032.793          12.000                                                            
> 2021 04 12 05 39 26.0000010  0  9
G22  24417890.646     -652724.897        2721.486          25.000                                                            
G09  25275999.789 -1696613377.282       -2190.780          18.000    25276015.978  -150850605.688       -1639.977          12.000
G01  20674627.453     -235363.651        2714.641          16.000                                                            
G16  24595813.273  -353457260.702       -2285.193          19.000                                                            
G27  23539539.516    -7068785.319       -2645.306           9.000                                                            
R14  19427432.069           0.000        1660.913          12.000                                                            
C06  39570495.116  -127259043.683       -1506.986           9.000                                                            
J01  38024705.544       -7582.764         177.045          12.000    38024710.940      -11175.198         125.750          18.000
E24  28429400.036 -1590618848.024       -2030.588          14.000                                                            
> 2021 04 12 05 39 27.0000010  0  9
G22  24417372.605     -655448.372        2725.564          26.000                                                            
G09  25276415.302 -1703682617.541       -2187.818          19.000                                                            
G01  20674111.211     -238076.457        2713.092          15.000                                                            
G16  24596244.374  -360526406.538       -2281.902          18.000                                                            
G27  23540037.471   -14137573.365       -2639.746           9.000                                                            
R14  19427128.379           0.000        1649.112          13.000                                                            
C06  39570780.818  -134328968.591       -1501.772           9.000                                                            
J01  38024673.766       -7758.886         175.208           9.000    38024678.563      -11303.723         131.345          17.000
E24  28429787.668 -1597688247.978       -2028.338          15.000                                                            
> 2021 04 12 05 39 28.0000010  0  9
G22  24416854.264     -658174.404        2725.605          26.000                                                            
G09  25276830.215 -1710751858.884       -2186.681          19.000                                                            
G01  20673595.568     -240789.885        2713.095          15.000                                                            
G16  24596676.675  -367595554.124       -2281.372          18.000                                                            
G27  23540534.827   -21206364.521       -2637.102          10.000                                                            
R14  19426819.593           0.000        1629.909          13.000                                                            
C06  39571068.020  -141398898.384       -1497.981          13.000                                                            
J01  38024640.789       -7935.258         175.988           9.000    38024645.286      -11435.002         131.331          17.000
E24  28430173.800 -1604757649.190       -2028.346          15.000                                                            
> 2021 04 12 05 39 29.0000010  0  9
G22  24416336.522     -660899.013        2723.458          27.000                                                            
G09  25277246.327 -1717821103.267       -2185.202          18.000                                                            
G01  20673079.325     -243504.885        2715.034          13.000                                                            
G16  24597109.575  -374664700.886       -2283.649          18.000                                                            
G27  23541034.281   -28275157.183       -2634.377           9.000                                                            
R14  19426518.901           0.000        1608.053          13.000                                                            
C06  39571354.921  -148468832.553       -1492.713          14.000                                                            
J01  38024607.212       -8111.287         176.508           9.000    38024611.409      -11566.949         132.232          17.000
E24  28430562.331 -1611827049.060       -2030.440          17.000                                                            
> 2021 04 12 05 39 30.0000010  0  9
G22  24415818.780     -663622.480        2723.418          29.000                                                            
G09  25277663.338 -1724890347.469       -2184.933          18.000                                                            
G01  20672562.783     -246219.457        2710.771          13.000                                                            
G16  24597543.975  -381733845.625       -2285.675          19.000                                                            
G27  23541535.834   -35343952.455       -2634.797          10.000                                                            
R14  19426216.710           0.000        1602.593          14.000                                                            
C06  39571640.024  -155538773.171       -1484.500          14.000                                                            
E24  28430950.263 -1618896447.902       -2030.405          17.000                                                            
J01  38024576.933      -11698.641         130.887          17.000                                                            
> 2021 04 12 05 39 31.0000010  0  9
G22  24415300.439     -666345.997        2723.404          28.000                                                            
G09  25278083.047 -1731959591.643       -2186.473          17.000                                                            
G01  20672044.441     -248928.372        2703.776          14.000                                                            
G16  24597983.171  -388802987.534       -2288.136          19.000                                                            
G27  23542032.590   -42412746.206       -2633.797          10.000                                                            
R14  19425925.612           0.000        1605.678          14.000                                                            
C06  39571923.028  -162608717.685       -1484.269          14.000                                                            
E24  28431338.194 -1625965846.090       -2034.500          17.000                                                            
J01  38024543.656      -11828.905         129.346          17.000                                                            
> 2021 04 12 05 39 32.0000010  0  9
G22  24414781.199     -669069.170        2722.620          27.000                                                            
G09  25278500.059 -1739028836.337       -2183.348          17.000                                                            
G01  20671530.297     -251631.157        2703.811          14.000                                                            
G16  24598424.465  -395872126.548       -2291.303          20.000                                                            
G27  23542530.845   -49481542.774       -2629.391          11.000                                                            
R14  19425624.920           0.000        1599.276          15.000                                                            
C06  39572206.332  -169678664.259       -1481.222          14.000                                                            
E24  28431726.425 -1633035241.174       -2035.761          16.000                                                            
J01  38024510.379      -11957.811         128.588          18.000                                                            
> 2021 04 12 05 39 33.0000010  0  9
G22  24414262.258     -671792.082        2723.012          27.000                                                            
G09  25278916.470 -1746098080.596       -2186.161          16.000                                                            
G01  20671017.652     -254333.999        2700.089          14.000                                                            
G16  24598860.963  -402941263.940       -2290.686          20.000                                                            
G27  23543027.601   -56550343.225       -2627.900          12.000                                                            
R14  19425332.022           0.000        1578.068          14.000                                                            
C06  39572489.635  -176748613.010       -1479.266          12.000                                                            
E24  28432114.057 -1640104633.433       -2037.522          16.000                                                            
J01  38024478.002      -12086.006         127.923          18.000                                                            
> 2021 04 12 05 39 34.0000010  0  9
G22  24413744.217     -674515.124        2722.966          27.000                                                            
G09  25279332.882 -1753167323.369       -2185.821          17.000                                                            
G01  20670504.108     -257032.756        2697.804          14.000                                                            
G16  24599299.559  -410010403.170       -2289.071          20.000                                                            
G27  23543526.756   -63619143.384       -2629.947          14.000                                                            
R14  19425040.324           0.000        1579.495          14.000                                                            
C06  39572771.141  -183818568.231       -1471.895           9.000                                                            
E24  28432500.789 -1647174026.937       -2033.967          14.000                                                            
J01  38024444.425      -12213.881         128.125          19.000                                                            
> 2021 04 12 05 39 35.0000010  0  9
G22  24413224.676     -677238.104        2722.794          26.000                                                            
G09  25279748.394 -1760236566.129       -2186.152          17.000                                                            
G01  20669991.463     -259730.959        2697.969          14.000                                                            
G16  24599736.057  -417079542.086       -2289.482          20.000                                                            
G27  23544026.510   -70687941.188       -2634.845          13.000                                                            
R14  19424749.826           0.000        1570.681          14.000                                                            
C06  39573052.946  -190888522.763       -1474.855          10.000                                                            
E24  28432886.622 -1654243422.790       -2031.746          12.000                                                            
J01  38024411.448      -12342.252         128.100          18.000                                                            
> 2021 04 12 05 39 36.0000010  0  9
G22  24412705.735     -679961.529        2724.226          27.000                                                            
G09  25280163.307 -1767305808.127       -2184.436          18.000                                                            
G01  20669479.117     -262429.144        2698.203          14.000                                                            
G16  24600174.354  -424148681.991       -2289.250          20.000                                                            
G27  23544523.566   -77756735.230       -2635.381          13.000                                                            
R14  19424454.830           0.000        1573.839          14.000                                                            
C06  39573333.851  -197958479.149       -1471.404           9.000                                                            
E24  28433274.554 -1661312819.930       -2030.948          11.000                                                            
J01  38024378.471      -12470.733         129.980          18.000                                                            
> 2021 04 12 05 39 37.0000010  0  9
G22  24412185.895     -682687.237        2726.423          25.000                                                            
G09  25280578.520 -1774375051.748       -2186.489          18.000                                                            
G01  20668964.074     -265127.578        2698.383          14.000                                                            
G16  24600611.751  -431217823.557       -2286.602          20.000                                                            
G27  23545024.519   -84825530.189       -2631.703          12.000                                                            
R14  19424165.830           0.000        1565.329          13.000                                                            
C06  39573615.356  -205028436.279       -1472.029          11.000                                                            
E24  28433661.586 -1668382218.636       -2029.684          11.000                                                            
J01  38024344.894      -12601.006         131.027          18.000                                                            
> 2021 04 12 05 39 38.0000010  0  9
G22  24411666.055     -685413.622        2726.254          24.000                                                            
G09  25280993.133 -1781444295.310       -2183.868          18.000                                                            
G01  20668455.326     -267827.815        2702.656          12.000                                                            
G16  24601051.846  -438286966.253       -2286.617          20.000                                                            
G27  23545523.074   -91894329.293       -2625.029          11.000                                                            
R14  19423880.128           0.000        1553.505          15.000                                                            
C06  39573897.161  -212098395.403       -1465.098          10.000                                                            
E24  28434048.318 -1675451618.354       -2028.695          11.000                                                            
J01  38024311.017      -12732.193         131.290          18.000                                                            
> 2021 04 12 05 39 39.0000010  0  9
G22  24411146.815     -688139.670        2724.975          26.000                                                            
G09  25281409.245 -1788513539.864       -2184.949          18.000                                                            
G01  20667940.882     -270530.259        2702.279          12.000                                                            
G16  24601490.443  -445356107.832       -2289.132          19.000                                                            
G27  23546015.633   -98963132.223       -2627.473           9.000                                                            
R14  19423590.228           0.000        1562.026          15.000                                                            
C06  39574176.268  -219168360.623       -1466.463          12.000                                                            
E24  28434434.151 -1682521018.047       -2031.125          11.000                                                            
J01  38024277.141      -12863.827         131.254          18.000                                                            
> 2021 04 12 05 39 40.0000010  0  9
G22  24410628.174     -690864.272        2723.993          27.000                                                            
G09  25281825.956 -1795582783.157       -2186.901          17.000                                                            
G01  20667424.040     -273234.925        2707.712           9.000                                                            
G16  24601923.942  -452425247.016       -2291.314          19.000                                                            
G27  23546516.286  -106031932.923       -2628.514           9.000                                                            
R14  19423304.826           0.000        1558.899          14.000                                                            
C06  39574457.773  -226238323.254       -1464.480          11.000                                                            
E24  28434819.684 -1689590415.410       -2032.267          13.000                                                            
J01  38024243.564      -12994.821         130.261          19.000                                                            
> 2021 04 12 05 39 41.0000010  0  9
G22  24410110.732     -693588.100        2723.354          29.000                                                            
G09  25282244.466 -1802652024.726       -2188.265          17.000                                                            
G01  20666908.697     -275942.647        2707.260           9.000                                                            
G16  24602358.042  -459494385.062       -2292.989          19.000                                                            
G27  23547012.742  -113100732.857       -2631.024           9.000                                                            
R14  19423014.627           0.000        1562.741          14.000                                                            
C06  39574738.679  -233308287.718       -1464.824          11.000                                                            
E24  28435204.318 -1696659811.810       -2033.567          14.000                                                            
J01  38024210.887      -13124.868         129.434          19.000                                                            
> 2021 04 12 05 39 42.0000010  0  9
G22  24409591.791     -696311.277        2722.632          27.000                                                            
G09  25282659.379 -1809721265.463       -2192.160          18.000                                                            
G01  20666393.653     -278651.355        2710.160           9.000                                                            
G16  24602792.441  -466563521.497       -2292.217          19.000                                                            
G27  23547510.997  -120169529.837       -2634.250          10.000                                                            
R14  19422736.120           0.000        1552.043          13.000                                                            
C06  39575019.584  -240378252.715       -1460.473          10.000                                                            
E24  28435594.348 -1703729206.753       -2034.526          16.000                                                            
J01  38024177.909      -13253.725         128.585          19.000                                                            
> 2021 04 12 05 39 43.0000010  0  9
G22  24409074.949     -699033.714        2722.153          26.000                                                            
G09  25283076.390 -1816790501.032       -2193.434          17.000                                                            
G01  20665878.010     -281366.021        2717.825           9.000                                                            
G16  24603225.342  -473632657.494       -2294.160          19.000                                                            
G27  23548011.051  -127238325.553       -2632.109          12.000                                                            
R14  19422452.816           0.000        1547.288          12.000                                                            
C06  39575299.290  -247448221.506       -1460.415          10.000                                                            
E24  28435984.677 -1710798600.973       -2034.725          17.000                                                            
J01  38024145.232      -13382.203         128.398          19.000                                                            
> 2021 04 12 05 39 44.0000010  0  8
G22  24408557.207     -701756.097        2722.741          25.000                                                            
G09  25283493.702 -1823859737.256       -2194.165          17.000                                                            
G16  24603661.540  -480701790.332       -2296.761          19.000                                                            
G27  23548511.405  -134307119.454       -2636.759          11.000                                                            
R14  19422168.912           0.000        1538.987          10.000                                                            
C06  39575578.697  -254518190.637       -1462.738          10.000                                                            
E24  28436372.609 -1717867995.526       -2034.561          18.000                                                            
J01  38024112.555      -13510.615         128.337          19.000                                                            
> 2021 04 12 05 39 45.0000010  0  8
G22  24408041.864     -704479.093        2722.950          25.000                                                            
G09  25283911.013 -1830928972.558       -2195.281          17.000                                                            
G16  24604098.937  -487770923.063       -2295.733          19.000                                                            
G27  23549009.660  -141375911.743       -2638.575          10.000                                                            
R14  19421876.914           0.000        1541.294           9.000                                                            
C06  39575860.802  -261588156.794       -1461.199          10.000                                                            
E24  28436757.842 -1724937391.322       -2033.258          18.000                                                            
J01  38024079.577      -13639.209         128.755          19.000                                                            
> 2021 04 12 05 39 46.0000010  0  8
G22  24407523.223     -707202.582        2723.945          25.000                                                            
G09  25284328.624 -1837998207.245       -2192.246          17.000                                                            
G16  24604536.034  -494840057.630       -2293.789          19.000                                                            
G27  23549511.213  -148444704.707       -2635.768          10.000                                                            
R14  19421589.114           0.000        1540.952           9.000                                                            
C06  39576142.607  -268658122.335       -1466.343           9.000                                                            
E24  28437143.076 -1732006787.257       -2032.706          17.000                                                            
J01  38024046.600      -13768.291         129.478          18.000                                                            
> 2021 04 12 05 39 47.0000010  0  8
G22  24407009.379     -709928.400        2726.773          25.000                                                            
G09  25284745.935 -1845067445.859       -2188.954          17.000                                                            
G16  24604979.127  -501909194.390       -2291.933          18.000                                                            
G27  23550006.770  -155513500.891       -2632.500           9.000                                                            
R14  19421306.110           0.000        1523.415           9.000                                                            
C06  39576425.011  -275728082.376       -1473.313           9.000                                                            
E24  28437527.709 -1739076184.174       -2031.665          18.000                                                            
J01  38024013.323      -13898.668         131.311          18.000                                                            
> 2021 04 12 05 39 48.0000010  0  8
G22  24406490.438     -712655.410        2726.834          26.000                                                            
G09  25285160.847 -1852136686.788       -2187.997          18.000                                                            
G16  24605413.227  -508978334.877       -2287.422          17.000                                                            
G27  23550504.125  -162582301.822       -2625.267           9.000                                                            
R14  19421020.707           0.000        1499.262           9.000                                                            
C06  39576711.912  -282798037.716       -1474.958           9.000                                                            
E24  28437912.643 -1746145582.094       -2031.066          18.000                                                            
J01  38023979.447      -14030.222         132.193          18.000                                                            
> 2021 04 12 05 39 49.0000010  0  9
G22  24405972.697     -715382.097        2726.269          26.000                                                            
G09  25285574.861 -1859205927.654       -2189.250          18.000                                                            
G01  20662898.373           0.000        2698.896          16.000                                                            
G16  24605850.924  -516047475.637       -2289.308          16.000                                                            
G27  23551005.078  -169651103.603       -2626.878           9.000                                                            
R14  19420746.397           0.000        1478.265           9.000                                                            
C06  39576997.615  -289867992.311       -1472.392           9.000                                                            
E24  28438299.075 -1753214979.971       -2031.463          18.000                                                            
J01  38023944.971      -14162.765         132.437          18.000                                                            
> 2021 04 12 05 39 50.0000010  0  8
G22  24405452.857     -718107.338        2724.250          24.000                                                            
G09  25285991.872 -1866275167.716       -2188.819          18.000                                                            
G01  20662368.340           0.284        2697.687          11.000                                                            
G16  24606282.625  -523116615.923       -2287.262          16.000                                                            
R14  19420470.588           0.000        1449.837           9.000                                                            
C06  39577284.216  -296937945.257       -1479.592           9.000                                                            
E24  28438684.309 -1760284377.410       -2031.077          18.000                                                            
J01  38023910.794      -14295.026         131.328          18.000                                                            
> 2021 04 12 05 39 51.0000010  0  7
G22  24404934.815     -720830.490        2721.445          25.000                                                            
G09  25286407.384 -1873344410.249       -2184.947          18.000                                                            
G01  20661848.200       -2695.326        2692.639          16.000                                                            
G16  24606714.626  -530185757.131       -2288.833          15.000                                                            
C06  39577569.019  -304007891.594       -1485.893           9.000                                                            
E24  28439069.542 -1767353774.320       -2033.264          18.000                                                            
J01  38023877.218      -14425.562         129.077          18.000                                                            
> 2021 04 12 05 39 52.0000010  0  7
G22  24404414.975     -723552.578        2721.914          25.000                                                            
G09  25286822.297 -1880413656.826       -2181.611          19.000                                                            
G01  20661335.555       -5388.015        2690.532          13.000                                                            
G16  24607145.128  -537254896.423       -2290.131          15.000                                                            
C06  39577854.721  -311077831.237       -1493.549           9.000                                                            
E24  28439455.974 -1774423169.407       -2035.386          18.000                                                            
J01  38023844.240      -14554.686         129.153          18.000                                                            
> 2021 04 12 05 39 53.0000010  0  7
G22  24403896.334     -726274.234        2721.763          25.000                                                            
G09  25287236.311 -1887482903.027       -2184.639          18.000                                                            
G01  20660818.713       -8078.564        2688.355          12.000                                                            
G16  24607580.427  -544324032.613       -2296.498          15.000                                                            
C06  39578144.621  -318147763.199       -1499.448           9.000                                                            
E24  28439847.203 -1781492562.584       -2036.777          17.000                                                            
J01  38023811.563      -14683.716         128.768          18.000                                                            
> 2021 04 12 05 39 54.0000010  0  7
G22  24403377.993     -728996.018        2721.665          25.000                                                            
G09  25287651.523 -1894552147.610       -2185.091          18.000                                                            
G01  20660304.869      -10766.660        2688.833          12.000                                                            
G16  24608015.126  -551393164.945       -2297.608          16.000                                                            
C06  39578433.321  -325217688.106       -1509.598           9.000                                                            
E24  28440236.934 -1788561955.002       -2036.727          16.000                                                            
J01  38023778.586      -14812.855         128.900          18.000                                                            
> 2021 04 12 05 39 55.0000010  0  7
G22  24402858.752     -731717.530        2721.928          24.000                                                            
G09  25288068.834 -1901621392.302       -2184.963          17.000                                                            
G01  20659785.928      -13454.647        2687.396          13.000                                                            
G16  24608450.124  -558462297.586       -2294.695          17.000                                                            
C06  39578725.019  -332287602.073       -1520.794           9.000                                                            
E24  28440624.865 -1795631346.018       -2040.859          16.000                                                            
J01  38023746.508      -14941.895         129.049          18.000                                                            
> 2021 04 12 05 39 56.0000010  0  7
G22  24402340.111     -734439.711        2723.453          28.000                                                            
G09  25288484.946 -1908690636.284       -2185.701          16.000                                                            
G01  20659272.084      -16142.727        2690.121          11.000                                                            
G16  24608884.224  -565531431.228       -2295.312          17.000                                                            
C06  39579017.316  -339357507.633       -1527.976           9.000                                                            
E24  28441012.497 -1802700735.428       -2037.862          16.000                                                            
J01  38023713.831      -15071.007         129.387          18.000                                                            
> 2021 04 12 05 39 57.0000010  0  6
G22  24401822.070     -737164.902        2726.759          27.000                                                            
G09  25288901.957 -1915759878.392       -2187.429          15.000                                                            
G01  20658756.441      -18831.934        2686.672          11.000                                                            
G16  24609320.422  -572600565.579       -2293.548          18.000                                                            
E24  28441401.028 -1809770128.361       -2035.397          16.000                                                            
J01  38023682.053      -15201.581         131.489          18.000                                                            
> 2021 04 12 05 39 58.0000010  0  6
G22  24401304.928     -739892.613        2726.710          24.000                                                            
G09  25289314.172 -1922829120.720       -2186.972          15.000                                                            
G01  20658241.997      -21519.285        2688.937          10.000                                                            
G16  24609757.220  -579669702.251       -2291.818          18.000                                                            
E24  28441787.160 -1816839524.261       -2032.772          16.000                                                            
J01  38023649.075      -15333.262         131.918          18.000                                                            
> 2021 04 12 05 39 59.0000010  0  6
G22  24400784.189     -742619.487        2726.458          26.000                                                            
G09  25289727.586 -1929898363.944       -2186.081          15.000                                                            
G01  20657718.859      -24210.195        2693.527          11.000                                                            
G16  24610191.319  -586738840.424       -2290.255          18.000                                                            
E24  28442171.494 -1823908919.842       -2033.953          17.000                                                            
J01  38023614.899      -15465.345         132.455          18.000                                                            
> 2021 04 12 05 40  0.0000010  0  6
G22  24400264.648     -745346.136        2726.389          26.000                                                            
G09  25290142.499 -1936967605.505       -2185.367          15.000                                                            
G01  20657200.218      -26903.469        2692.539           9.000                                                            
G16  24610625.419  -593807980.821       -2288.377          18.000                                                            
E24  28442558.526 -1830978314.536       -2034.652          18.000                                                            
J01  38023580.123      -15596.935         130.421          18.000                                                            
> 2021 04 12 05 40  1.0000010  0  6
G22  24399746.007     -748071.648        2724.951          26.000                                                            
G09  25290560.409 -1944036849.861       -2188.719          14.000                                                            
G01  20656676.480      -29598.862        2698.161          10.000                                                            
G16  24611061.617  -600877120.951       -2290.040          18.000                                                            
E24  28442945.259 -1838047708.477       -2035.832          18.000                                                            
J01  38023547.146      -15727.750         130.937          18.000                                                            
> 2021 04 12 05 40  2.0000010  0  6
G22  24399227.966     -750796.656        2724.344          25.000                                                            
G09  25290975.922 -1951106088.828       -2194.185          14.000                                                            
G01  20656154.242      -32302.247        2707.991          10.000                                                            
G16  24611496.316  -607946261.240       -2288.600          18.000                                                            
E24  28443334.090 -1845117101.411       -2037.328          18.000                                                            
J01  38023513.869      -15858.296         129.840          18.000                                                            
> 2021 04 12 05 40  3.0000010  0  6
G22  24398708.725     -753520.740        2723.893          25.000                                                            
G09  25291394.732 -1958175322.075       -2195.918          14.000    25291413.619           0.000       -1628.914          22.000
G01  20655629.305      -35008.610        2706.311           9.000                                                            
G16  24611933.413  -615015400.035       -2290.384          18.000                                                            
E24  28443724.120 -1852186492.914       -2037.887          19.000                                                            
J01  38023481.192      -15988.447         129.777          18.000                                                            
> 2021 04 12 05 40  4.0000010  0  6
G22  24398187.686     -756244.715        2724.072          25.000                                                            
G09  25291816.240 -1965244554.674       -2196.397          13.000    25291830.330           0.015       -1628.290          16.000
G01  20655106.467      -37713.232        2703.333           9.000                                                            
G16  24612371.110  -622084539.920       -2289.766          18.000                                                            
E24  28444112.651 -1859255885.428       -2036.552          19.000                                                            
J01  38023448.215      -16118.249         129.904          19.000                                                            
> 2021 04 12 05 40  5.0000010  0  6
G22  24397670.244     -758968.802        2723.947          23.000                                                            
G09  25292237.448 -1972313788.533       -2192.335          12.000    25292246.142   -37712662.247       -1625.142          17.000
G01  20654586.327      -40412.695        2696.406          10.000                                                            
G16  24612805.809  -629153681.673       -2286.114          17.000                                                            
E24  28444501.781 -1866325277.742       -2036.783          18.000                                                            
J01  38023415.237      -16248.710         130.801          18.000                                                            
> 2021 04 12 05 40  6.0000010  0  6
G22  24397153.702     -761693.115        2725.198          24.000                                                            
G09  25292658.957 -1979383025.745       -2192.492          12.000    25292661.355   -75425324.836       -1628.458          15.000
G01  20654071.884      -43105.813        2691.203           9.000                                                            
G16  24613245.305  -636222821.025       -2292.675          16.000                                                            
E24  28444890.012 -1873394669.841       -2036.639          17.000                                                            
J01  38023382.260      -16379.728         131.804          18.000                                                            
> 2021 04 12 05 40  7.0000010  0  6
G22  24396635.661     -764419.301        2727.024          24.000                                                            
G09  25293076.567 -1986452265.316       -2188.604          12.000    25293077.467  -113137983.445       -1632.768          15.000
G01  20653555.641      -45795.121        2688.627          11.000                                                            
G16  24613682.102  -643291956.394       -2295.187          16.000                                                            
E24  28445276.445 -1880464064.597       -2032.924          15.000                                                            
J01  38023348.983      -16513.349         135.538          17.000                                                            
> 2021 04 12 05 40  8.0000010  0  6
G22  24396117.319     -767146.752        2727.471          26.000                                                            
G09  25293495.378 -1993521506.621       -2186.822          12.000    25293493.879  -150850642.036       -1628.808          15.000
G01  20653038.799      -48480.615        2682.804          13.000                                                            
G16  24614116.202  -650361094.214       -2290.747          15.000                                                            
E24  28445662.877 -1887533460.439       -2033.437          14.000                                                            
J01  38023314.507      -16648.784         135.246          16.000                                                            
> 2021 04 12 05 40  9.0000010  0  6
G22  24395599.578     -769873.621        2726.312          26.000                                                            
G09  25293916.286 -2000590748.543       -2188.840          11.000    25293909.691  -188563302.909       -1625.205          15.000
G01  20652524.055      -51163.108        2681.261          15.000    20652554.634           0.000        2006.108          20.000
G16  24614554.199  -657430231.571       -2292.335          13.000                                                            
E24  28446049.610 -1894602857.407       -2032.168          13.000                                                            
J01  38023280.930      -16781.849         132.597          15.000                                                            
> 2021 04 12 05 40 10.0000010  0  6
G22  24395082.436     -772599.112        2724.897          24.000                                                            
G09  25294331.798 -2007659988.668       -2188.520          13.000    25294324.603  -226275966.033       -1625.676          13.000
G01  20652007.213      -53846.932        2687.617          15.000    20652051.282          -0.066        2006.553          15.000
G16  24614995.193  -664499368.432       -2292.004          13.000                                                            
E24  28446433.644 -1901672253.839       -2029.321          12.000                                                            
J01  38023247.354      -16914.338         131.508          16.000                                                            
> 2021 04 12 05 40 11.0000010  0  6
G22  24394565.594     -775323.256        2723.611          20.000                                                            
G09  25294750.009 -2014729227.360       -2194.046          12.000    25294739.816  -263988630.041       -1623.397          12.000
G01  20651494.268      -56533.878        2688.104          15.000    20651540.436       -2006.514        2006.390          14.000
G16  24615433.490  -671568500.125       -2298.414          12.000                                                            
E24  28446820.076 -1908741653.129       -2028.497          12.000                                                            
J01  38023214.077      -17045.515         130.555          16.000                                                            
> 2021 04 12 05 40 12.0000010  0  6
G22  24394049.651     -778046.643        2723.415          19.000                                                            
G09  25295173.316 -2021798462.509       -2193.716          10.000                                                            
G01  20650980.424      -59221.979        2691.827          15.000    20651029.290       -4015.026        2008.160          13.000
G16  24615867.889  -678637635.030       -2297.428          11.000                                                            
E24  28447205.609 -1915811050.282       -2034.225          11.000                                                            
J01  38023181.099      -17176.065         129.764          16.000                                                            
> 2021 04 12 05 40 13.0000010  0  6
G22  24393534.008     -780769.967        2722.751          23.000                                                            
G09  25295594.524 -2028867693.784       -2201.027          10.000                                                            
G01  20650467.479      -61913.957        2691.916          14.000    20650518.144       -6020.965        2007.573          14.000
G16  24616301.989  -685706767.773       -2298.607          10.000                                                            
E24  28447593.841 -1922880444.015       -2037.780           9.000                                                            
J01  38023148.722      -17305.589         129.205          16.000                                                            
> 2021 04 12 05 40 14.0000010  0  6
G22  24393014.467     -783492.984        2722.888          23.000                                                            
G09  25296016.932 -2035936917.103       -2210.152          10.000                                                            
G01  20649953.635      -64605.622        2689.321          12.000    20650006.098       -8027.579        2005.306          14.000
G16  24616738.786  -692775897.769       -2300.663          12.000                                                            
E24  28447984.170 -1929949835.781       -2034.333           9.000                                                            
J01  38023116.344      -17434.960         129.708          17.000                                                            
> 2021 04 12 05 40 15.0000010  0  6
G22  24392495.527     -786216.019        2723.127          23.000                                                            
G09  25296439.639 -2043006132.201       -2217.085           9.000                                                            
G01  20649442.488      -67294.988        2692.759           9.000    20649494.353      -10037.444        2013.648          13.000
G16  24617178.882  -699845026.534       -2299.354          12.000                                                            
E24  28448373.001 -1937019234.759       -2028.101           9.000                                                            
J01  38023083.967      -17565.057         129.755          18.000                                                            
> 2021 04 12 05 40 16.0000010  0  6
G22  24391977.485     -788939.200        2723.343          23.000                                                            
G09  25296864.445 -2050075343.596       -2219.590           9.000                                                            
G01  20648930.143      -69987.114        2689.565           9.000    20648981.707      -12051.795        2010.622          12.000
G16  24617615.380  -706914155.660       -2299.050          13.000                                                            
E24  28448758.834 -1944088633.035       -2031.272           9.000                                                            
J01  38023051.289      -17695.017         130.203          17.000                                                            
> 2021 04 12 05 40 17.0000010  0  6
G22  24391458.545     -791664.881        2727.194          21.000                                                            
G09  25297285.054 -2057144554.305       -2219.629           9.000                                                            
G01  20648413.901      -72678.020        2691.641           9.000    20648469.362      -14061.041        2007.697          13.000
G16  24618050.378  -713983286.433       -2297.517          14.000                                                            
E24  28449144.967 -1951158033.091       -2026.909           9.000                                                            
J01  38023018.012      -17826.706         132.770          18.000                                                            
> 2021 04 12 05 40 18.0000010  0  4
G22  24390939.904     -794393.612        2729.093          22.000                                                            
G16  24618483.578  -721052419.808       -2298.171          14.000                                                            
E24  28449531.999 -1958227435.748       -2026.892          10.000                                                            
J01  38022983.536      -17960.583         134.437          18.000                                                            
> 2021 04 12 05 40 19.0000010  0  4
G22  24390418.565     -797122.156        2727.558          24.000                                                            
G16  24618917.678  -728121550.365       -2298.585          12.000                                                            
E24  28449917.532 -1965296835.949       -2034.936          10.000                                                            
J01  38022949.660      -18094.874         133.716          18.000                                                            
> 2021 04 12 05 40 20.0000010  0  5
G22  24389900.823     -799850.085        2727.156          22.000                                                            
G16  24619354.775  -735190680.060       -2303.156          12.000                                                            
E24  28450303.665 -1972366230.805       -2033.245          10.000                                                            
G01  20646935.624           0.000        2002.837          12.000                                                            
J01  38022915.184      -18228.110         132.742          18.000                                                            
> 2021 04 12 05 40 21.0000010  0  4
G22  24389384.281     -802576.587        2724.558          23.000                                                            
G16  24619792.772  -742259805.057       -2305.281          12.000                                                            
E24  28450689.498 -1979435625.899       -2031.449           9.000                                                            
J01  38022881.907      -18359.563         130.791          18.000                                                            
> 2021 04 12 05 40 22.0000010  0  4
G22  24388862.942     -805301.250        2723.824          23.000                                                            
G16  24620228.670  -749328929.482       -2304.040          10.000                                                            
E24  28451074.731 -1986505024.956       -2031.710           9.000                                                            
J01  38022848.030      -18490.339         130.987          18.000                                                            
> 2021 04 12 05 40 23.0000010  0  5
G22  24388341.602     -808025.833        2724.191          23.000                                                            
G16  24620666.068  -756398052.943       -2308.020          10.000                                                            
E24  28451461.463 -1993574421.070       -2034.713           9.000                                                            
G01  20645405.183           0.000        1999.828          12.000                                                            
J01  38022814.753      -18621.518         131.425          18.000                                                            
> 2021 04 12 05 40 24.0000010  0  4
G22  24387821.762     -810749.344        2722.804          21.000                                                            
G16  24621104.964  -763467171.336       -2313.595          10.000                                                            
E24  28451849.994 -2000643812.038       -2041.483           9.000                                                            
J01  38022781.176      -18753.076         131.757          19.000                                                            
> 2021 04 12 05 40 25.0000010  0  4
G22  24387301.023     -813472.794        2723.788          24.000                                                            
G16  24621542.361  -770536289.046       -2310.444          10.000                                                            
E24  28452240.324 -2007713197.092       -2045.849           9.000                                                            
J01  38022747.300      -18884.845         131.315          19.000                                                            
> 2021 04 12 05 40 26.0000010  0  4
G22  24386779.984     -816197.420        2724.871          23.000                                                            
G16  24621980.657  -777605403.486       -2317.289           9.000                                                            
E24  28452629.754 -2014782581.052       -2046.948           9.000                                                            
J01  38022714.622      -19016.053         131.541          19.000                                                            
> 2021 04 12 05 40 27.0000010  0  3
G22  24386262.242     -818922.738        2727.288          23.000                                                            
G16  24622420.753  -784674513.658       -2319.367           9.000                                                            
J01  38022680.146      -19148.841         133.405          19.000                                                            
> 2021 04 12 05 40 28.0000010  0  3
G22  24385743.601     -821651.034        2730.288          25.000                                                            
G16  24622863.246  -791743621.090       -2324.475           9.000                                                            
J01  38022645.670      -19283.087         135.163          19.000                                                            
> 2021 04 12 05 40 29.0000010  0  2
G22  24385223.461     -824383.240        2733.097          20.000                                                            
J01  38022610.295      -19419.630         137.713          19.000                                                            
> 2021 04 12 05 40 30.0000010  0  2
G22  24384703.621     -827116.161        2732.158          19.000                                                            
J01  38022574.919      -19558.289         139.336          18.000                                                            
> 2021 04 12 05 40 31.0000010  0  2
G22  24384180.183     -829849.182        2732.937          22.000                                                            
J01  38022538.944      -19697.444         138.397          18.000                                                            
> 2021 04 12 05 40 32.0000010  0  3
G22  24383661.542     -832581.036        2731.054          23.000                                                            
G01  20640822.256           0.000        1996.184          13.000                                                            
J01  38022503.868      -19834.616         136.519          18.000                                                            
> 2021 04 12 05 40 33.0000010  0  3
G22  24383145.000     -835311.178        2728.949          23.000                                                            
G01  20640312.909          -0.468        1998.241          12.000                                                            
J01  38022469.392      -19970.154         134.575          18.000                                                            
> 2021 04 12 05 40 34.0000010  0  3
G22  24382627.558     -838038.868        2726.817          26.000                                                            
G01  20639803.561       -1998.437        1997.948          12.000                                                            
J01  38022434.316      -20103.732         132.913          18.000                                                            
> 2021 04 12 05 40 35.0000010  0  3
G22  24382108.617     -840764.823        2725.273          26.000                                                            
G01  20639294.514       -3996.102        1997.211          12.000                                                            
J01  38022400.740      -20236.548         133.626          18.000                                                            
> 2021 04 12 05 40 36.0000010  0  3
G22  24381590.276     -843490.732        2727.432          22.000                                                            
G01  20638784.867       -5993.416        1997.579          13.000                                                            
J01  38022366.264      -20370.540         134.899          18.000                                                            
> 2021 04 12 05 40 37.0000010  0  2
G22  24381072.834     -846218.999        2729.385          21.000                                                            
J01  38022332.087      -20505.819         135.410          17.000                                                            
> 2021 04 12 05 40 38.0000010  0  2
G22  24380557.191     -848948.401        2729.248          24.000                                                            
J01  38022297.911      -20641.286         135.480          18.000                                                            
> 2021 04 12 05 40 39.0000010  0  2
G22  24380038.850     -851677.324        2728.489          22.000                                                            
J01  38022264.334      -20776.662         135.527          18.000                                                            
> 2021 04 12 05 40 40.0000010  0  2
G22  24379520.209     -854405.201        2726.819          22.000                                                            
J01  38022230.458      -20911.761         134.167          18.000                                                            
> 2021 04 12 05 40 41.0000010  0  2
G22  24379002.768     -857130.832        2724.563          22.000                                                            
J01  38022196.881      -21046.044         133.907          18.000                                                            
> 2021 04 12 05 40 42.0000010  0  4
G22  24378481.428     -859855.093        2723.988          23.000                                                            
C06  39592171.910           0.000       -1486.143          18.000                                                            
G01  20635731.181           0.000        1989.483          12.000                                                            
J01  38022163.304      -21179.094         132.421          19.000                                                            
> 2021 04 12 05 40 43.0000010  0  4
G22  24377958.590     -862579.623        2724.322          21.000                                                            
C06  39592352.085           0.172       -1479.480           9.000                                                            
G01  20635223.032          -0.230        1991.082          14.000                                                            
J01  38022129.727      -21311.560         131.501          19.000                                                            
> 2021 04 12 05 40 44.0000010  0  5
G22  24377438.750     -865304.212        2725.066          26.000                                                            
C06  39592647.081    -7069950.892       -1475.580           9.000                                                            
G01  20634715.184       -1991.020        1992.434          14.000                                                            
G16  24629866.099           0.000       -2313.634          20.000                                                            
J01  38022095.251      -21442.845         131.385          18.000                                                            
> 2021 04 12 05 40 45.0000010  0  5
G22  24376919.810     -868030.056        2726.820          25.000                                                            
C06  39592931.584   -14139904.593       -1476.994           9.000                                                            
G01  20634206.736       -3984.759        1995.039          14.000                                                            
G16  24630309.791           0.427       -2305.952          15.000                                                            
J01  38022061.974      -21574.414         133.011          18.000                                                            
> 2021 04 12 05 40 46.0000010  0  6
G22  24376399.370     -870757.802        2729.075          23.000                                                            
C08  38097681.324           0.000        1754.609          18.000                                                            
C06  39593219.085   -21209858.478       -1471.171           9.000                                                            
G01  20633698.588       -5980.503        1995.201          14.000                                                            
G16  24630751.685    -7069124.592       -2302.435           9.000                                                            
J01  38022028.397      -21708.381         135.454          18.000                                                            
> 2021 04 12 05 40 47.0000010  0  6
G22  24375882.228     -873488.173        2731.429          23.000                                                            
C08  38097334.464          -0.469        1746.357           9.000                                                            
C06  39593504.487   -28279817.626       -1466.160           9.000                                                            
G01  20633188.641       -7976.377        1996.020          15.000                                                            
G16  24631187.284   -14138252.782       -2301.958          10.000                                                            
J01  38021993.322      -21844.905         137.316          18.000                                                            
> 2021 04 12 05 40 48.0000010  0  6
G22  24375359.090     -876219.737        2731.139          23.000                                                            
C08  38097001.395       -1750.679        1751.334           9.000                                                            
C06  39593788.990   -35349781.105       -1466.209           9.000                                                            
G01  20632678.994       -9974.321        1997.252          13.000                                                            
G16  24631626.780   -21207379.388       -2304.105           9.000                                                            
J01  38021958.846      -21982.101         136.803          18.000                                                            
> 2021 04 12 05 40 49.0000010  0  6
G22  24374838.950     -878950.918        2730.812          22.000                                                            
C08  38096652.736       -3503.641        1753.846          13.000                                                            
C06  39594072.294   -42419744.144       -1465.634           9.000                                                            
G01  20632170.546      -11969.193        1991.824          15.000                                                            
G16  24632066.575   -28276505.768       -2300.581           9.000                                                            
J01  38021924.969      -22118.570         135.412          19.000                                                            
> 2021 04 12 05 40 50.0000010  0  6
G22  24374321.209     -881681.459        2729.396          23.000                                                            
C08  38096311.872       -5256.118        1750.959          12.000                                                            
C06  39594353.799   -49489706.247       -1468.755           9.000                                                            
G01  20631662.997      -13960.380        1990.716          14.000                                                            
G16  24632506.670   -35345638.153       -2292.629           9.000                                                            
J01  38021890.193      -22254.001         134.839          18.000                                                            
> 2021 04 12 05 40 51.0000010  0  6
G22  24373804.966     -884409.593        2724.777          22.000                                                            
C08  38095973.107       -7007.890        1752.247          12.000                                                            
C06  39594636.504   -56559666.937       -1467.297           9.000                                                            
G01  20631156.048      -15948.558        1986.321          15.000                                                            
G16  24632938.971   -42414776.880       -2286.851           9.000                                                            
J01  38021856.017      -22388.218         133.535          18.000                                                            
> 2021 04 12 05 40 52.0000010  0  5
G22  24373283.027     -887134.012        2723.878          23.000                                                            
C08  38095633.742       -8761.307        1754.232          13.000                                                            
C06  39594921.906   -63629626.682       -1471.224           9.000                                                            
G01  20630650.298      -17932.230        1982.180          14.000                                                            
J01  38021821.541      -22521.516         133.115          18.000                                                            
> 2021 04 12 05 40 53.0000010  0  5
G22  24372766.185     -889858.782        2725.507          25.000                                                            
C08  38095292.878      -10516.888        1759.053          14.000                                                            
C06  39595203.111   -70699587.182       -1465.625           9.000                                                            
G01  20630144.548      -19916.058        1985.326          14.000                                                            
J01  38021787.065      -22655.327         134.849          17.000                                                            
> 2021 04 12 05 40 54.0000010  0  4
G22  24372246.645     -892584.841        2726.890          25.000                                                            
C08  38094953.213      -12277.057        1758.493          13.000                                                            
G01  20629638.798      -21900.236        1985.746          12.000                                                            
J01  38021751.689      -22790.252         134.214          17.000                                                            
> 2021 04 12 05 40 55.0000010  0  4
G22  24371727.704     -895312.328        2728.022          24.000                                                            
C08  38094611.449      -14035.351        1757.555          13.000                                                            
G01  20629132.449      -23887.946        1987.962          12.000                                                            
J01  38021716.613      -22923.600         131.558          16.000                                                            
> 2021 04 12 05 40 56.0000010  0  3
G22  24371211.761     -898040.633        2728.981          24.000                                                            
C08  38094271.784      -15793.363        1758.377          14.000                                                            
J01  38021682.137      -23055.998         132.894          16.000                                                            
> 2021 04 12 05 40 57.0000010  0  4
G22  24370692.521     -900768.700        2726.969          23.000                                                            
C08  38093932.719      -17552.093        1761.235          13.000                                                            
G01  20628117.352           0.000        1987.423          12.000                                                            
J01  38021647.361      -23188.759         132.595          17.000                                                            
> 2021 04 12 05 40 58.0000010  0  3
G22  24370174.179     -903495.801        2726.592          20.000                                                            
C08  38093590.356      -19314.130        1763.274          13.000                                                            
J01  38021613.485      -23321.337         133.082          17.000                                                            
> 2021 04 12 05 40 59.0000010  0  5
G22  24369656.438     -906224.102        2730.425          20.000                                                            
C06  39597023.151           0.000       -1479.671          19.000                                                            
C08  38093248.893      -21077.199        1762.555          13.000                                                            
G01  20627103.453           0.000        1988.716          12.000                                                            
J01  38021579.908      -23455.089         134.603          17.000                                                            
> 2021 04 12 05 41  0.0000010  0  5
G22  24369137.497     -908954.453        2728.532          24.000                                                            
C06  39597345.128          -0.196       -1479.699           9.000                                                            
C08  38092908.628      -22840.523        1766.099          12.000                                                            
G01  20626595.305           0.310        1993.121          12.000                                                            
J01  38021545.732      -23590.368         135.722          17.000                                                            
> 2021 04 12 05 41  1.0000010  0  5
G22  24368619.756     -911682.596        2727.455          24.000                                                            
C06  39597620.038    -7069947.217       -1483.892          16.000                                                            
C08  38092567.164      -24606.166        1764.727          10.000                                                            
G01  20626088.056       -1990.518        1988.526          13.000                                                            
J01  38021510.956      -23725.888         135.204          17.000                                                            
> 2021 04 12 05 41  2.0000010  0  5
G22  24368100.215     -914409.562        2726.225          26.000                                                            
C06  39597896.447   -14139890.637       -1487.810          16.000                                                            
C08  38092227.799      -26368.123        1758.649          11.000                                                            
G01  20625581.107       -3977.827        1986.775          12.000                                                            
J01  38021476.480      -23860.892         134.454          17.000                                                            
> 2021 04 12 05 41  3.0000010  0  5
G22  24367578.576     -917135.700        2725.874          27.000                                                            
C06  39598175.853   -21209831.845       -1488.978          16.000                                                            
C08  38091891.432      -28123.787        1753.227          12.000                                                            
G01  20625074.458       -5965.343        1986.385          13.000                                                            
J01  38021442.003      -23995.677         134.458          17.000                                                            
> 2021 04 12 05 41  4.0000010  0  5
G22  24367058.736     -919861.866        2726.434          26.000                                                            
C06  39598455.560   -28279771.408       -1489.317          16.000                                                            
C08  38091553.866      -29874.507        1748.431          11.000                                                            
G01  20624568.708       -7949.201        1981.562          12.000                                                            
J01  38021407.227      -24130.027         134.514          17.000                                                            
> 2021 04 12 05 41  5.0000010  0  5
G22  24366539.796     -922589.815        2728.960          23.000                                                            
C06  39598736.465   -35349711.734       -1488.312          16.000                                                            
C08  38091218.398      -31618.961        1741.730          12.000                                                            
G01  20624063.858       -9931.818        1984.384          13.000                                                            
J01  38021372.152      -24266.211         137.356          16.000                                                            
> 2021 04 12 05 41  6.0000010  0  5
G22  24366022.054     -925319.383        2729.738          24.000                                                            
C06  39599019.769   -42419654.465       -1484.348          16.000                                                            
C08  38090881.132      -33360.966        1742.423          12.000                                                            
G01  20623558.108      -11917.175        1984.552          13.000                                                            
J01  38021337.676      -24403.098         136.277          16.000                                                            
> 2021 04 12 05 41  7.0000010  0  5
G22  24365502.214     -928047.998        2727.797          24.000                                                            
C06  39599301.574   -49489602.628       -1479.654          15.000                                                            
C08  38090546.264      -35099.306        1734.503          12.000                                                            
G01  20623052.658      -13900.702        1982.249          14.000                                                            
J01  38021304.099      -24538.833         134.924          16.000                                                            
> 2021 04 12 05 41  8.0000010  0  5
G22  24364982.374     -930775.594        2727.153          24.000                                                            
C06  39599581.280   -56559556.562       -1474.587          14.000                                                            
C08  38090211.096      -36835.857        1735.766           9.000                                                            
G01  20622548.407      -15882.494        1982.209          13.000                                                            
J01  38021270.222      -24674.037         135.040          16.000                                                            
> 2021 04 12 05 41  9.0000010  0  5
G22  24364464.932     -933502.313        2726.056          25.000                                                            
C06  39599861.586   -63629516.749       -1466.934          12.000                                                            
C08  38089875.028      -38572.067        1736.480          10.000                                                            
G01  20622043.856      -17864.359        1981.345          14.000                                                            
J01  38021236.346      -24808.997         134.971          17.000                                                            
> 2021 04 12 05 41 10.0000010  0  5
G22  24363945.991     -936228.297        2726.105          24.000                                                            
C06  39600141.293   -70699477.803       -1467.461          13.000                                                            
C08  38089541.059      -40311.045        1740.211          10.000                                                            
G01  20621539.006      -19844.474        1980.305          14.000                                                            
J01  38021202.169      -24943.834         134.686          17.000                                                            
> 2021 04 12 05 41 11.0000010  0  5
G22  24363427.350     -938955.308        2728.040          22.000                                                            
C06  39600420.699   -77769442.503       -1464.663          13.000                                                            
C08  38089206.191      -42053.246        1742.212          10.000                                                            
G01  20621033.556      -21824.118        1979.841          15.000                                                            
J01  38021167.993      -25078.745         135.227          17.000                                                            
> 2021 04 12 05 41 12.0000010  0  5
G22  24362906.011     -941684.086        2728.822          22.000                                                            
C06  39600699.806   -84839407.426       -1465.190          14.000                                                            
C08  38088870.424      -43797.017        1743.953          11.000                                                            
G01  20620528.105      -23805.334        1981.952          14.000                                                            
J01  38021133.517      -25214.749         136.426          18.000                                                            
> 2021 04 12 05 41 13.0000010  0  5
G22  24362387.670     -944412.999        2728.388          23.000                                                            
C06  39600980.112   -91909369.592       -1471.233          15.000                                                            
C08  38088533.757      -45544.725        1748.831          12.000                                                            
G01  20620023.255      -25784.507        1978.021          14.000                                                            
J01  38021098.441      -25350.698         135.638          17.000                                                            
> 2021 04 12 05 41 14.0000010  0  5
G22  24361869.329     -947140.967        2727.783          23.000                                                            
C06  39601261.917   -98979326.095       -1473.373          16.000                                                            
C08  38088194.991      -47297.439        1751.040          11.000                                                            
G01  20619518.704      -27763.480        1981.442          15.000                                                            
J01  38021064.265      -25486.377         135.805          17.000                                                            
> 2021 04 12 05 41 15.0000010  0  5
G22  24361353.086     -949869.051        2727.452          22.000                                                            
C06  39601542.822  -106049278.611       -1479.192          16.000                                                            
C08  38087855.626      -49049.071        1752.623          11.000                                                            
G01  20619013.254      -29746.715        1984.843          13.000                                                            
J01  38021029.789      -25622.044         135.604          16.000                                                            
> 2021 04 12 05 41 16.0000010  0  5
G22  24360832.047     -952596.194        2726.738          21.000                                                            
C06  39601828.525  -113119226.946       -1482.997          16.000                                                            
C08  38087517.161      -50801.798        1752.578          11.000                                                            
G01  20618508.404      -31731.340        1983.046          12.000                                                            
J01  38020995.612      -25757.230         135.325          16.000                                                            
> 2021 04 12 05 41 17.0000010  0  5
G22  24360312.806     -955322.885        2726.540          22.000                                                            
C06  39602111.529  -120189171.700       -1485.037          16.000                                                            
C08  38087179.594      -52554.724        1750.378           9.000                                                            
G09  25322135.450           0.000       -2168.222          17.000                                                            
J01  38020961.136      -25892.143         134.863          16.000                                                            
> 2021 04 12 05 41 18.0000010  0  5
G22  24359793.566     -958049.559        2727.478          22.000                                                            
C06  39602397.531  -127259115.339       -1483.895          15.000                                                            
C08  38086844.426      -54304.137        1749.495           9.000                                                            
G09  25322532.975          -0.257       -2170.064          13.000                                                            
J01  38020926.960      -26028.090         137.874          15.000                                                            
> 2021 04 12 05 41 19.0000010  0  5
G22  24359274.925     -960776.891        2726.417          22.000                                                            
C06  39602682.633  -134329061.038       -1481.684          15.000                                                            
C08  38086510.158      -56053.898        1752.709          10.000                                                            
G09  25322935.896    -7069259.335       -2168.269          11.000                                                            
J01  38020892.484      -26165.643         137.034          15.000                                                            
> 2021 04 12 05 41 20.0000010  0  5
G22  24358753.586     -963503.074        2725.961          22.000                                                            
C06  39602970.134  -141399009.160       -1478.678          16.000                                                            
C08  38086173.791      -57807.850        1754.891           9.000                                                            
G09  25323344.813   -14138520.559       -2170.858          12.000                                                            
J01  38020857.708      -26302.261         136.406          15.000                                                            
> 2021 04 12 05 41 21.0000010  0  5
G22  24358231.947     -966229.422        2727.183          22.000                                                            
C06  39603254.937  -148468959.036       -1480.222          15.000                                                            
C08  38085837.124      -59563.754        1759.446           9.000                                                            
G09  25323752.531   -21207781.318       -2165.320           9.000                                                            
J01  38020823.532      -26439.156         137.849          16.000                                                            
> 2021 04 12 05 41 22.0000010  0  5
G22  24357712.706     -968957.089        2728.155          23.000                                                            
C06  39603540.040  -155538908.523       -1478.667          15.000                                                            
C08  38085500.756      -61326.647        1765.402          10.000                                                            
G09  25324158.450   -28277046.324       -2162.158           9.000                                                            
J01  38020788.756      -26577.043         137.952          17.000                                                            
> 2021 04 12 05 41 23.0000010  0  5
G22  24357192.267     -971685.602        2729.720          22.000                                                            
C06  39603824.843  -162608859.594       -1476.719          15.000                                                            
C08  38085164.090      -63090.682        1761.307           9.000                                                            
G09  25324567.067   -35346315.633       -2156.159           9.000                                                            
J01  38020753.080      -26714.861         137.786          17.000                                                            
> 2021 04 12 05 41 24.0000010  0  4
G22  24356671.527     -974414.784        2728.957          20.000                                                            
C06  39604110.545  -169678809.359       -1480.683          13.000                                                            
C08  38084827.423      -64852.331        1762.411           9.000                                                            
J01  38020718.304      -26851.770         135.902          17.000                                                            
> 2021 04 12 05 41 25.0000010  0  4
G22  24356151.987     -977143.438        2728.780          22.000                                                            
C06  39604397.146  -176748756.893       -1482.740          13.000                                                            
C08  38084490.156      -66615.034        1762.099          10.000                                                            
J01  38020684.128      -26987.476         135.400          18.000                                                            
> 2021 04 12 05 41 26.0000010  0  4
G22  24355634.245     -979872.555        2728.283          22.000                                                            
C06  39604682.549  -183818701.055       -1486.841          13.000                                                            
C08  38084152.890      -68375.538        1757.025          10.000                                                            
J01  38020650.252      -27122.308         134.609          18.000                                                            
